{"type": "FeatureCollection", "name": "NUTS_LB_2021_4326_LEVL_1.geojson", "crs": {"type": "name", "properties": {"name": "urn:ogc:def:crs:EPSG::4326"}}, "features": [{"type": "Feature", "properties": {"NUTS_ID": "AL0", "LEVL_CODE": 1, "CNTR_CODE": "AL", "NAME_LATN": "Shqipëria", "NUTS_NAME": "Shqipëria", "MOUNT_TYPE": 0, "URBN_TYPE": 0, "COAST_TYPE": 0}, "geometry": {"type": "Point", "coordinates": [20.070842279000033, 41.13894706900004]}}, {"type": "Feature", "properties": {"NUTS_ID": "AT1", "LEVL_CODE": 1, "CNTR_CODE": "AT", "NAME_LATN": "Ostösterreich", "NUTS_NAME": "Ostösterreich", "MOUNT_TYPE": 0, "URBN_TYPE": 0, "COAST_TYPE": 0}, "geometry": {"type": "Point", "coordinates": [15.879659455000024, 48.15126586500003]}}, {"type": "Feature", "properties": {"NUTS_ID": "AT2", "LEVL_CODE": 1, "CNTR_CODE": "AT", "NAME_LATN": "Südösterreich", "NUTS_NAME": "Südösterreich", "MOUNT_TYPE": 0, "URBN_TYPE": 0, "COAST_TYPE": 0}, "geometry": {"type": "Point", "coordinates": [14.606127666000077, 47.07974400400008]}}, {"type": "Feature", "properties": {"NUTS_ID": "AT3", "LEVL_CODE": 1, "CNTR_CODE": "AT", "NAME_LATN": "Westösterreich", "NUTS_NAME": "Westösterreich", "MOUNT_TYPE": 0, "URBN_TYPE": 0, "COAST_TYPE": 0}, "geometry": {"type": "Point", "coordinates": [12.245509250000055, 47.28029126900003]}}, {"type": "Feature", "properties": {"NUTS_ID": "BE1", "LEVL_CODE": 1, "CNTR_CODE": "BE", "NAME_LATN": "Région de Bruxelles-Capitale/Brussels Hoofdstedelijk Gewest", "NUTS_NAME": "Région de Bruxelles-Capitale/Brussels Hoofdstedelijk Gewest", "MOUNT_TYPE": 0, "URBN_TYPE": 0, "COAST_TYPE": 0}, "geometry": {"type": "Point", "coordinates": [4.356929018000073, 50.840051206000055]}}, {"type": "Feature", "properties": {"NUTS_ID": "BE2", "LEVL_CODE": 1, "CNTR_CODE": "BE", "NAME_LATN": "Vlaams Gewest", "NUTS_NAME": "Vlaams Gewest", "MOUNT_TYPE": 0, "URBN_TYPE": 0, "COAST_TYPE": 0}, "geometry": {"type": "Point", "coordinates": [4.985208249000038, 51.101344064000045]}}, {"type": "Feature", "properties": {"NUTS_ID": "BE3", "LEVL_CODE": 1, "CNTR_CODE": "BE", "NAME_LATN": "Région wallonne", "NUTS_NAME": "Région wallonne", "MOUNT_TYPE": 0, "URBN_TYPE": 0, "COAST_TYPE": 0}, "geometry": {"type": "Point", "coordinates": [4.825161250000065, 50.45953338900006]}}, {"type": "Feature", "properties": {"NUTS_ID": "BG3", "LEVL_CODE": 1, "CNTR_CODE": "BG", "NAME_LATN": "Severna i Yugoiztochna Bulgaria", "NUTS_NAME": "Северна и Югоизточна България", "MOUNT_TYPE": 0, "URBN_TYPE": 0, "COAST_TYPE": 0}, "geometry": {"type": "Point", "coordinates": [25.885268057000076, 43.15245538900007]}}, {"type": "Feature", "properties": {"NUTS_ID": "BG4", "LEVL_CODE": 1, "CNTR_CODE": "BG", "NAME_LATN": "Yugozapadna i Yuzhna tsentralna Bulgaria", "NUTS_NAME": "Югозападна и Южна централна България", "MOUNT_TYPE": 0, "URBN_TYPE": 0, "COAST_TYPE": 0}, "geometry": {"type": "Point", "coordinates": [24.194054901000072, 42.12493351200004]}}, {"type": "Feature", "properties": {"NUTS_ID": "CH0", "LEVL_CODE": 1, "CNTR_CODE": "CH", "NAME_LATN": "Schweiz/Suisse/Svizzera", "NUTS_NAME": "Schweiz/Suisse/Svizzera", "MOUNT_TYPE": 0, "URBN_TYPE": 0, "COAST_TYPE": 0}, "geometry": {"type": "Point", "coordinates": [8.212859250000065, 46.95477141200007]}}, {"type": "Feature", "properties": {"NUTS_ID": "CY0", "LEVL_CODE": 1, "CNTR_CODE": "CY", "NAME_LATN": "Kýpros", "NUTS_NAME": "Κύπρος", "MOUNT_TYPE": 0, "URBN_TYPE": 0, "COAST_TYPE": 0}, "geometry": {"type": "Point", "coordinates": [33.173903437000035, 35.028353010000046]}}, {"type": "Feature", "properties": {"NUTS_ID": "CZ0", "LEVL_CODE": 1, "CNTR_CODE": "CZ", "NAME_LATN": "Česko", "NUTS_NAME": "Česko", "MOUNT_TYPE": 0, "URBN_TYPE": 0, "COAST_TYPE": 0}, "geometry": {"type": "Point", "coordinates": [15.32762464700005, 49.738194211000064]}}, {"type": "Feature", "properties": {"NUTS_ID": "DE1", "LEVL_CODE": 1, "CNTR_CODE": "DE", "NAME_LATN": "Baden-Württemberg", "NUTS_NAME": "Baden-Württemberg", "MOUNT_TYPE": 0, "URBN_TYPE": 0, "COAST_TYPE": 0}, "geometry": {"type": "Point", "coordinates": [9.05093051600005, 48.53422255100003]}}, {"type": "Feature", "properties": {"NUTS_ID": "DE2", "LEVL_CODE": 1, "CNTR_CODE": "DE", "NAME_LATN": "Bayern", "NUTS_NAME": "Bayern", "MOUNT_TYPE": 0, "URBN_TYPE": 0, "COAST_TYPE": 0}, "geometry": {"type": "Point", "coordinates": [11.421321356000021, 48.947441182000034]}}, {"type": "Feature", "properties": {"NUTS_ID": "DE3", "LEVL_CODE": 1, "CNTR_CODE": "DE", "NAME_LATN": "Berlin", "NUTS_NAME": "Berlin", "MOUNT_TYPE": 0, "URBN_TYPE": 0, "COAST_TYPE": 0}, "geometry": {"type": "Point", "coordinates": [13.402229297000076, 52.50046582500005]}}, {"type": "Feature", "properties": {"NUTS_ID": "DE4", "LEVL_CODE": 1, "CNTR_CODE": "DE", "NAME_LATN": "Brandenburg", "NUTS_NAME": "Brandenburg", "MOUNT_TYPE": 0, "URBN_TYPE": 0, "COAST_TYPE": 0}, "geometry": {"type": "Point", "coordinates": [12.138105751000069, 53.083621340000036]}}, {"type": "Feature", "properties": {"NUTS_ID": "DE5", "LEVL_CODE": 1, "CNTR_CODE": "DE", "NAME_LATN": "Bremen", "NUTS_NAME": "Bremen", "MOUNT_TYPE": 0, "URBN_TYPE": 0, "COAST_TYPE": 0}, "geometry": {"type": "Point", "coordinates": [8.787650074000055, 53.106458521000036]}}, {"type": "Feature", "properties": {"NUTS_ID": "DE6", "LEVL_CODE": 1, "CNTR_CODE": "DE", "NAME_LATN": "Hamburg", "NUTS_NAME": "Hamburg", "MOUNT_TYPE": 0, "URBN_TYPE": 0, "COAST_TYPE": 0}, "geometry": {"type": "Point", "coordinates": [10.010044248000042, 53.53919231200007]}}, {"type": "Feature", "properties": {"NUTS_ID": "DE7", "LEVL_CODE": 1, "CNTR_CODE": "DE", "NAME_LATN": "Hessen", "NUTS_NAME": "Hessen", "MOUNT_TYPE": 0, "URBN_TYPE": 0, "COAST_TYPE": 0}, "geometry": {"type": "Point", "coordinates": [9.03251602000006, 50.60055658500005]}}, {"type": "Feature", "properties": {"NUTS_ID": "DE8", "LEVL_CODE": 1, "CNTR_CODE": "DE", "NAME_LATN": "Mecklenburg-Vorpommern", "NUTS_NAME": "Mecklenburg-Vorpommern", "MOUNT_TYPE": 0, "URBN_TYPE": 0, "COAST_TYPE": 0}, "geometry": {"type": "Point", "coordinates": [12.467490153000028, 53.71383832400005]}}, {"type": "Feature", "properties": {"NUTS_ID": "DE9", "LEVL_CODE": 1, "CNTR_CODE": "DE", "NAME_LATN": "Niedersachsen", "NUTS_NAME": "Niedersachsen", "MOUNT_TYPE": 0, "URBN_TYPE": 0, "COAST_TYPE": 0}, "geometry": {"type": "Point", "coordinates": [9.183745170000066, 52.76209918200004]}}, {"type": "Feature", "properties": {"NUTS_ID": "DEA", "LEVL_CODE": 1, "CNTR_CODE": "DE", "NAME_LATN": "Nordrhein-Westfalen", "NUTS_NAME": "Nordrhein-Westfalen", "MOUNT_TYPE": 0, "URBN_TYPE": 0, "COAST_TYPE": 0}, "geometry": {"type": "Point", "coordinates": [7.550672491000057, 51.47493878800003]}}, {"type": "Feature", "properties": {"NUTS_ID": "DEB", "LEVL_CODE": 1, "CNTR_CODE": "DE", "NAME_LATN": "Rheinland-Pfalz", "NUTS_NAME": "Rheinland-Pfalz", "MOUNT_TYPE": 0, "URBN_TYPE": 0, "COAST_TYPE": 0}, "geometry": {"type": "Point", "coordinates": [7.907402626000021, 49.50926477100006]}}, {"type": "Feature", "properties": {"NUTS_ID": "DEC", "LEVL_CODE": 1, "CNTR_CODE": "DE", "NAME_LATN": "Saarland", "NUTS_NAME": "Saarland", "MOUNT_TYPE": 0, "URBN_TYPE": 0, "COAST_TYPE": 0}, "geometry": {"type": "Point", "coordinates": [6.956966371000021, 49.392248349000056]}}, {"type": "Feature", "properties": {"NUTS_ID": "DED", "LEVL_CODE": 1, "CNTR_CODE": "DE", "NAME_LATN": "Sachsen", "NUTS_NAME": "Sachsen", "MOUNT_TYPE": 0, "URBN_TYPE": 0, "COAST_TYPE": 0}, "geometry": {"type": "Point", "coordinates": [13.333162425000069, 51.058274863000065]}}, {"type": "Feature", "properties": {"NUTS_ID": "DEE", "LEVL_CODE": 1, "CNTR_CODE": "DE", "NAME_LATN": "Sachsen-Anhalt", "NUTS_NAME": "Sachsen-Anhalt", "MOUNT_TYPE": 0, "URBN_TYPE": 0, "COAST_TYPE": 0}, "geometry": {"type": "Point", "coordinates": [11.699571281000033, 52.01098705900006]}}, {"type": "Feature", "properties": {"NUTS_ID": "DEF", "LEVL_CODE": 1, "CNTR_CODE": "DE", "NAME_LATN": "Schleswig-Holstein", "NUTS_NAME": "Schleswig-Holstein", "MOUNT_TYPE": 0, "URBN_TYPE": 0, "COAST_TYPE": 0}, "geometry": {"type": "Point", "coordinates": [9.821161782000047, 54.08035378900007]}}, {"type": "Feature", "properties": {"NUTS_ID": "DEG", "LEVL_CODE": 1, "CNTR_CODE": "DE", "NAME_LATN": "Thüringen", "NUTS_NAME": "Thüringen", "MOUNT_TYPE": 0, "URBN_TYPE": 0, "COAST_TYPE": 0}, "geometry": {"type": "Point", "coordinates": [11.021763453000062, 50.90437942500006]}}, {"type": "Feature", "properties": {"NUTS_ID": "DK0", "LEVL_CODE": 1, "CNTR_CODE": "DK", "NAME_LATN": "Danmark", "NUTS_NAME": "Danmark", "MOUNT_TYPE": 0, "URBN_TYPE": 0, "COAST_TYPE": 0}, "geometry": {"type": "Point", "coordinates": [9.319274915000051, 56.02714316500004]}}, {"type": "Feature", "properties": {"NUTS_ID": "EE0", "LEVL_CODE": 1, "CNTR_CODE": "EE", "NAME_LATN": "Eesti", "NUTS_NAME": "Eesti", "MOUNT_TYPE": 0, "URBN_TYPE": 0, "COAST_TYPE": 0}, "geometry": {"type": "Point", "coordinates": [25.854759778000073, 58.67092932800006]}}, {"type": "Feature", "properties": {"NUTS_ID": "EL3", "LEVL_CODE": 1, "CNTR_CODE": "EL", "NAME_LATN": "Attiki", "NUTS_NAME": "Αττική", "MOUNT_TYPE": 0, "URBN_TYPE": 0, "COAST_TYPE": 0}, "geometry": {"type": "Point", "coordinates": [23.811409824000066, 38.05480841700006]}}, {"type": "Feature", "properties": {"NUTS_ID": "EL4", "LEVL_CODE": 1, "CNTR_CODE": "EL", "NAME_LATN": "Nisia Aigaiou, Kriti", "NUTS_NAME": "Νησιά Αιγαίου, Κρήτη", "MOUNT_TYPE": 0, "URBN_TYPE": 0, "COAST_TYPE": 0}, "geometry": {"type": "Point", "coordinates": [24.822414967000043, 35.224757287000045]}}, {"type": "Feature", "properties": {"NUTS_ID": "EL5", "LEVL_CODE": 1, "CNTR_CODE": "EL", "NAME_LATN": "Voreia Elláda", "NUTS_NAME": "Βόρεια Ελλάδα", "MOUNT_TYPE": 0, "URBN_TYPE": 0, "COAST_TYPE": 0}, "geometry": {"type": "Point", "coordinates": [23.30443668600003, 40.798552081000025]}}, {"type": "Feature", "properties": {"NUTS_ID": "EL6", "LEVL_CODE": 1, "CNTR_CODE": "EL", "NAME_LATN": "Kentriki Elláda", "NUTS_NAME": "Κεντρική Ελλάδα", "MOUNT_TYPE": 0, "URBN_TYPE": 0, "COAST_TYPE": 0}, "geometry": {"type": "Point", "coordinates": [22.197975020000058, 39.05006908200005]}}, {"type": "Feature", "properties": {"NUTS_ID": "ES1", "LEVL_CODE": 1, "CNTR_CODE": "ES", "NAME_LATN": "Noroeste", "NUTS_NAME": "Noroeste", "MOUNT_TYPE": 0, "URBN_TYPE": 0, "COAST_TYPE": 0}, "geometry": {"type": "Point", "coordinates": [-7.69528147799997, 42.81917454500007]}}, {"type": "Feature", "properties": {"NUTS_ID": "ES2", "LEVL_CODE": 1, "CNTR_CODE": "ES", "NAME_LATN": "Noreste", "NUTS_NAME": "Noreste", "MOUNT_TYPE": 0, "URBN_TYPE": 0, "COAST_TYPE": 0}, "geometry": {"type": "Point", "coordinates": [-1.13009227799995, 41.896189958000036]}}, {"type": "Feature", "properties": {"NUTS_ID": "ES3", "LEVL_CODE": 1, "CNTR_CODE": "ES", "NAME_LATN": "Comunidad de Madrid", "NUTS_NAME": "Comunidad de Madrid", "MOUNT_TYPE": 0, "URBN_TYPE": 0, "COAST_TYPE": 0}, "geometry": {"type": "Point", "coordinates": [-3.711936334999962, 40.50075956200004]}}, {"type": "Feature", "properties": {"NUTS_ID": "ES4", "LEVL_CODE": 1, "CNTR_CODE": "ES", "NAME_LATN": "Centro (ES)", "NUTS_NAME": "Centro (ES)", "MOUNT_TYPE": 0, "URBN_TYPE": 0, "COAST_TYPE": 0}, "geometry": {"type": "Point", "coordinates": [-5.889417874999936, 40.55560915900003]}}, {"type": "Feature", "properties": {"NUTS_ID": "ES5", "LEVL_CODE": 1, "CNTR_CODE": "ES", "NAME_LATN": "Este", "NUTS_NAME": "Este", "MOUNT_TYPE": 0, "URBN_TYPE": 0, "COAST_TYPE": 0}, "geometry": {"type": "Point", "coordinates": [2.005140072000074, 41.84731042300007]}}, {"type": "Feature", "properties": {"NUTS_ID": "ES6", "LEVL_CODE": 1, "CNTR_CODE": "ES", "NAME_LATN": "Sur", "NUTS_NAME": "Sur", "MOUNT_TYPE": 0, "URBN_TYPE": 0, "COAST_TYPE": 0}, "geometry": {"type": "Point", "coordinates": [-4.260972641999956, 37.51553773100005]}}, {"type": "Feature", "properties": {"NUTS_ID": "ES7", "LEVL_CODE": 1, "CNTR_CODE": "ES", "NAME_LATN": "Canarias", "NUTS_NAME": "Canarias", "MOUNT_TYPE": 0, "URBN_TYPE": 0, "COAST_TYPE": 0}, "geometry": {"type": "Point", "coordinates": [-16.564575257999934, 28.245655233000036]}}, {"type": "Feature", "properties": {"NUTS_ID": "FI1", "LEVL_CODE": 1, "CNTR_CODE": "FI", "NAME_LATN": "Manner-Suomi", "NUTS_NAME": "Manner-Suomi", "MOUNT_TYPE": 0, "URBN_TYPE": 0, "COAST_TYPE": 0}, "geometry": {"type": "Point", "coordinates": [26.27950422200007, 64.49742088600004]}}, {"type": "Feature", "properties": {"NUTS_ID": "FI2", "LEVL_CODE": 1, "CNTR_CODE": "FI", "NAME_LATN": "Åland", "NUTS_NAME": "Åland", "MOUNT_TYPE": 0, "URBN_TYPE": 0, "COAST_TYPE": 0}, "geometry": {"type": "Point", "coordinates": [20.093127609000078, 60.265317561000074]}}, {"type": "Feature", "properties": {"NUTS_ID": "FR1", "LEVL_CODE": 1, "CNTR_CODE": "FR", "NAME_LATN": "Ile-de-France", "NUTS_NAME": "Ile-de-France", "MOUNT_TYPE": 0, "URBN_TYPE": 0, "COAST_TYPE": 0}, "geometry": {"type": "Point", "coordinates": [2.52339947400003, 48.71962269800008]}}, {"type": "Feature", "properties": {"NUTS_ID": "FRB", "LEVL_CODE": 1, "CNTR_CODE": "FR", "NAME_LATN": "Centre — Val de Loire", "NUTS_NAME": "Centre — Val de Loire", "MOUNT_TYPE": 0, "URBN_TYPE": 0, "COAST_TYPE": 0}, "geometry": {"type": "Point", "coordinates": [1.677585891000035, 47.48105230700003]}}, {"type": "Feature", "properties": {"NUTS_ID": "FRC", "LEVL_CODE": 1, "CNTR_CODE": "FR", "NAME_LATN": "Bourgogne-Franche-Comté", "NUTS_NAME": "Bourgogne-Franche-Comté", "MOUNT_TYPE": 0, "URBN_TYPE": 0, "COAST_TYPE": 0}, "geometry": {"type": "Point", "coordinates": [4.808281261000047, 47.229748002000065]}}, {"type": "Feature", "properties": {"NUTS_ID": "FRD", "LEVL_CODE": 1, "CNTR_CODE": "FR", "NAME_LATN": "Normandie", "NUTS_NAME": "Normandie", "MOUNT_TYPE": 0, "URBN_TYPE": 0, "COAST_TYPE": 0}, "geometry": {"type": "Point", "coordinates": [0.011242504000052, 48.86515553100003]}}, {"type": "Feature", "properties": {"NUTS_ID": "FRE", "LEVL_CODE": 1, "CNTR_CODE": "FR", "NAME_LATN": "Hauts-de-France", "NUTS_NAME": "Hauts-de-France", "MOUNT_TYPE": 0, "URBN_TYPE": 0, "COAST_TYPE": 0}, "geometry": {"type": "Point", "coordinates": [2.768646260000025, 49.97030801900007]}}, {"type": "Feature", "properties": {"NUTS_ID": "FRF", "LEVL_CODE": 1, "CNTR_CODE": "FR", "NAME_LATN": "Grand Est", "NUTS_NAME": "Grand Est", "MOUNT_TYPE": 0, "URBN_TYPE": 0, "COAST_TYPE": 0}, "geometry": {"type": "Point", "coordinates": [5.626722931000074, 48.69138703500005]}}, {"type": "Feature", "properties": {"NUTS_ID": "FRG", "LEVL_CODE": 1, "CNTR_CODE": "FR", "NAME_LATN": "Pays de la Loire", "NUTS_NAME": "Pays de la Loire", "MOUNT_TYPE": 0, "URBN_TYPE": 0, "COAST_TYPE": 0}, "geometry": {"type": "Point", "coordinates": [-0.795870281999953, 47.493574960000046]}}, {"type": "Feature", "properties": {"NUTS_ID": "FRH", "LEVL_CODE": 1, "CNTR_CODE": "FR", "NAME_LATN": "Bretagne", "NUTS_NAME": "Bretagne", "MOUNT_TYPE": 0, "URBN_TYPE": 0, "COAST_TYPE": 0}, "geometry": {"type": "Point", "coordinates": [-2.788341840999976, 48.165706801000056]}}, {"type": "Feature", "properties": {"NUTS_ID": "FRI", "LEVL_CODE": 1, "CNTR_CODE": "FR", "NAME_LATN": "Nouvelle-Aquitaine", "NUTS_NAME": "Nouvelle-Aquitaine", "MOUNT_TYPE": 0, "URBN_TYPE": 0, "COAST_TYPE": 0}, "geometry": {"type": "Point", "coordinates": [0.38969725000004, 45.48221721300007]}}, {"type": "Feature", "properties": {"NUTS_ID": "FRJ", "LEVL_CODE": 1, "CNTR_CODE": "FR", "NAME_LATN": "Occitanie", "NUTS_NAME": "Occitanie", "MOUNT_TYPE": 0, "URBN_TYPE": 0, "COAST_TYPE": 0}, "geometry": {"type": "Point", "coordinates": [2.144213035000064, 43.706961972000045]}}, {"type": "Feature", "properties": {"NUTS_ID": "FRK", "LEVL_CODE": 1, "CNTR_CODE": "FR", "NAME_LATN": "Auvergne-Rhône-Alpes", "NUTS_NAME": "Auvergne-Rhône-Alpes", "MOUNT_TYPE": 0, "URBN_TYPE": 0, "COAST_TYPE": 0}, "geometry": {"type": "Point", "coordinates": [4.592738904000043, 45.281509835000065]}}, {"type": "Feature", "properties": {"NUTS_ID": "FRL", "LEVL_CODE": 1, "CNTR_CODE": "FR", "NAME_LATN": "Provence-Alpes-Côte d’Azur", "NUTS_NAME": "Provence-Alpes-Côte d’Azur", "MOUNT_TYPE": 0, "URBN_TYPE": 0, "COAST_TYPE": 0}, "geometry": {"type": "Point", "coordinates": [6.064085376000037, 43.962895857000035]}}, {"type": "Feature", "properties": {"NUTS_ID": "FRM", "LEVL_CODE": 1, "CNTR_CODE": "FR", "NAME_LATN": "Corse", "NUTS_NAME": "Corse", "MOUNT_TYPE": 0, "URBN_TYPE": 0, "COAST_TYPE": 0}, "geometry": {"type": "Point", "coordinates": [9.097577775000047, 42.12671945100004]}}, {"type": "Feature", "properties": {"NUTS_ID": "FRY", "LEVL_CODE": 1, "CNTR_CODE": "FR", "NAME_LATN": "RUP FR — Régions Ultrapériphériques Françaises", "NUTS_NAME": "RUP FR — Régions Ultrapériphériques Françaises", "MOUNT_TYPE": 0, "URBN_TYPE": 0, "COAST_TYPE": 0}, "geometry": {"type": "Point", "coordinates": [-53.226286579999964, 3.922059035000075]}}, {"type": "Feature", "properties": {"NUTS_ID": "HR0", "LEVL_CODE": 1, "CNTR_CODE": "HR", "NAME_LATN": "Hrvatska", "NUTS_NAME": "Hrvatska", "MOUNT_TYPE": 0, "URBN_TYPE": 0, "COAST_TYPE": 0}, "geometry": {"type": "Point", "coordinates": [16.489360259000023, 43.75596595700006]}}, {"type": "Feature", "properties": {"NUTS_ID": "HU1", "LEVL_CODE": 1, "CNTR_CODE": "HU", "NAME_LATN": "Közép-Magyarország", "NUTS_NAME": "Közép-Magyarország", "MOUNT_TYPE": 0, "URBN_TYPE": 0, "COAST_TYPE": 0}, "geometry": {"type": "Point", "coordinates": [19.311144526000078, 47.425828988000035]}}, {"type": "Feature", "properties": {"NUTS_ID": "HU2", "LEVL_CODE": 1, "CNTR_CODE": "HU", "NAME_LATN": "Dunántúl", "NUTS_NAME": "Dunántúl", "MOUNT_TYPE": 0, "URBN_TYPE": 0, "COAST_TYPE": 0}, "geometry": {"type": "Point", "coordinates": [17.732097718000034, 46.876587062000056]}}, {"type": "Feature", "properties": {"NUTS_ID": "HU3", "LEVL_CODE": 1, "CNTR_CODE": "HU", "NAME_LATN": "Alföld és Észak", "NUTS_NAME": "Alföld és Észak", "MOUNT_TYPE": 0, "URBN_TYPE": 0, "COAST_TYPE": 0}, "geometry": {"type": "Point", "coordinates": [20.849280750000048, 47.39332910500008]}}, {"type": "Feature", "properties": {"NUTS_ID": "IE0", "LEVL_CODE": 1, "CNTR_CODE": "IE", "NAME_LATN": "Ireland", "NUTS_NAME": "Ireland", "MOUNT_TYPE": 0, "URBN_TYPE": 0, "COAST_TYPE": 0}, "geometry": {"type": "Point", "coordinates": [-8.090168486999971, 53.17941730200005]}}, {"type": "Feature", "properties": {"NUTS_ID": "IS0", "LEVL_CODE": 1, "CNTR_CODE": "IS", "NAME_LATN": "Ísland", "NUTS_NAME": "Ísland", "MOUNT_TYPE": 0, "URBN_TYPE": 0, "COAST_TYPE": 0}, "geometry": {"type": "Point", "coordinates": [-18.85686169099995, 64.75596913900006]}}, {"type": "Feature", "properties": {"NUTS_ID": "ITC", "LEVL_CODE": 1, "CNTR_CODE": "IT", "NAME_LATN": "Nord-Ovest", "NUTS_NAME": "Nord-Ovest", "MOUNT_TYPE": 0, "URBN_TYPE": 0, "COAST_TYPE": 0}, "geometry": {"type": "Point", "coordinates": [8.728166179000027, 45.26015553700006]}}, {"type": "Feature", "properties": {"NUTS_ID": "ITF", "LEVL_CODE": 1, "CNTR_CODE": "IT", "NAME_LATN": "Sud", "NUTS_NAME": "Sud", "MOUNT_TYPE": 0, "URBN_TYPE": 0, "COAST_TYPE": 0}, "geometry": {"type": "Point", "coordinates": [15.598222374000045, 40.77406870400006]}}, {"type": "Feature", "properties": {"NUTS_ID": "ITG", "LEVL_CODE": 1, "CNTR_CODE": "IT", "NAME_LATN": "Isole", "NUTS_NAME": "Isole", "MOUNT_TYPE": 0, "URBN_TYPE": 0, "COAST_TYPE": 0}, "geometry": {"type": "Point", "coordinates": [14.165849184000024, 37.57044767100007]}}, {"type": "Feature", "properties": {"NUTS_ID": "ITH", "LEVL_CODE": 1, "CNTR_CODE": "IT", "NAME_LATN": "Nord-Est", "NUTS_NAME": "Nord-Est", "MOUNT_TYPE": 0, "URBN_TYPE": 0, "COAST_TYPE": 0}, "geometry": {"type": "Point", "coordinates": [11.583654610000053, 45.50073981300005]}}, {"type": "Feature", "properties": {"NUTS_ID": "ITI", "LEVL_CODE": 1, "CNTR_CODE": "IT", "NAME_LATN": "Centro (IT)", "NUTS_NAME": "Centro (IT)", "MOUNT_TYPE": 0, "URBN_TYPE": 0, "COAST_TYPE": 0}, "geometry": {"type": "Point", "coordinates": [12.142577251000034, 42.94513110500003]}}, {"type": "Feature", "properties": {"NUTS_ID": "LI0", "LEVL_CODE": 1, "CNTR_CODE": "LI", "NAME_LATN": "Liechtenstein", "NUTS_NAME": "Liechtenstein", "MOUNT_TYPE": 0, "URBN_TYPE": 0, "COAST_TYPE": 0}, "geometry": {"type": "Point", "coordinates": [9.553350187000035, 47.13833352000006]}}, {"type": "Feature", "properties": {"NUTS_ID": "LT0", "LEVL_CODE": 1, "CNTR_CODE": "LT", "NAME_LATN": "Lietuva", "NUTS_NAME": "Lietuva", "MOUNT_TYPE": 0, "URBN_TYPE": 0, "COAST_TYPE": 0}, "geometry": {"type": "Point", "coordinates": [23.91974377300005, 55.33513519600007]}}, {"type": "Feature", "properties": {"NUTS_ID": "LU0", "LEVL_CODE": 1, "CNTR_CODE": "LU", "NAME_LATN": "Luxembourg", "NUTS_NAME": "Luxembourg", "MOUNT_TYPE": 0, "URBN_TYPE": 0, "COAST_TYPE": 0}, "geometry": {"type": "Point", "coordinates": [6.094280149000042, 49.77104423600008]}}, {"type": "Feature", "properties": {"NUTS_ID": "LV0", "LEVL_CODE": 1, "CNTR_CODE": "LV", "NAME_LATN": "Latvija", "NUTS_NAME": "Latvija", "MOUNT_TYPE": 0, "URBN_TYPE": 0, "COAST_TYPE": 0}, "geometry": {"type": "Point", "coordinates": [26.38197612500005, 56.68294994000007]}}, {"type": "Feature", "properties": {"NUTS_ID": "ME0", "LEVL_CODE": 1, "CNTR_CODE": "ME", "NAME_LATN": "Crna Gora", "NUTS_NAME": "Црна Гора", "MOUNT_TYPE": 0, "URBN_TYPE": 0, "COAST_TYPE": 0}, "geometry": {"type": "Point", "coordinates": [19.268966068000054, 42.77213980600004]}}, {"type": "Feature", "properties": {"NUTS_ID": "MK0", "LEVL_CODE": 1, "CNTR_CODE": "MK", "NAME_LATN": "Severna Makedonija", "NUTS_NAME": "Северна Македонија", "MOUNT_TYPE": 0, "URBN_TYPE": 0, "COAST_TYPE": 0}, "geometry": {"type": "Point", "coordinates": [21.696609463000073, 41.59812201200003]}}, {"type": "Feature", "properties": {"NUTS_ID": "MT0", "LEVL_CODE": 1, "CNTR_CODE": "MT", "NAME_LATN": "Malta", "NUTS_NAME": "Malta", "MOUNT_TYPE": 0, "URBN_TYPE": 0, "COAST_TYPE": 0}, "geometry": {"type": "Point", "coordinates": [14.43119451900003, 35.88603830200003]}}, {"type": "Feature", "properties": {"NUTS_ID": "NL1", "LEVL_CODE": 1, "CNTR_CODE": "NL", "NAME_LATN": "Noord-Nederland", "NUTS_NAME": "Noord-Nederland", "MOUNT_TYPE": 0, "URBN_TYPE": 0, "COAST_TYPE": 0}, "geometry": {"type": "Point", "coordinates": [6.303852081000059, 53.044463679000046]}}, {"type": "Feature", "properties": {"NUTS_ID": "NL2", "LEVL_CODE": 1, "CNTR_CODE": "NL", "NAME_LATN": "Oost-Nederland", "NUTS_NAME": "Oost-Nederland", "MOUNT_TYPE": 0, "URBN_TYPE": 0, "COAST_TYPE": 0}, "geometry": {"type": "Point", "coordinates": [5.999476654000034, 52.29534500300008]}}, {"type": "Feature", "properties": {"NUTS_ID": "NL3", "LEVL_CODE": 1, "CNTR_CODE": "NL", "NAME_LATN": "West-Nederland", "NUTS_NAME": "West-Nederland", "MOUNT_TYPE": 0, "URBN_TYPE": 0, "COAST_TYPE": 0}, "geometry": {"type": "Point", "coordinates": [4.72779484900002, 52.180454533000045]}}, {"type": "Feature", "properties": {"NUTS_ID": "NL4", "LEVL_CODE": 1, "CNTR_CODE": "NL", "NAME_LATN": "Zuid-Nederland", "NUTS_NAME": "Zuid-Nederland", "MOUNT_TYPE": 0, "URBN_TYPE": 0, "COAST_TYPE": 0}, "geometry": {"type": "Point", "coordinates": [5.415372520000062, 51.456166376000056]}}, {"type": "Feature", "properties": {"NUTS_ID": "PL2", "LEVL_CODE": 1, "CNTR_CODE": "PL", "NAME_LATN": "Makroregion południowy", "NUTS_NAME": "Makroregion południowy", "MOUNT_TYPE": 0, "URBN_TYPE": 0, "COAST_TYPE": 0}, "geometry": {"type": "Point", "coordinates": [19.69547276700007, 50.07337091900007]}}, {"type": "Feature", "properties": {"NUTS_ID": "PL4", "LEVL_CODE": 1, "CNTR_CODE": "PL", "NAME_LATN": "Makroregion północno-zachodni", "NUTS_NAME": "Makroregion północno-zachodni", "MOUNT_TYPE": 0, "URBN_TYPE": 0, "COAST_TYPE": 0}, "geometry": {"type": "Point", "coordinates": [16.269742577000045, 52.725754195000036]}}, {"type": "Feature", "properties": {"NUTS_ID": "PL5", "LEVL_CODE": 1, "CNTR_CODE": "PL", "NAME_LATN": "Makroregion południowo-zachodni", "NUTS_NAME": "Makroregion południowo-zachodni", "MOUNT_TYPE": 0, "URBN_TYPE": 0, "COAST_TYPE": 0}, "geometry": {"type": "Point", "coordinates": [16.890221344000054, 50.958978751000075]}}, {"type": "Feature", "properties": {"NUTS_ID": "PL6", "LEVL_CODE": 1, "CNTR_CODE": "PL", "NAME_LATN": "Makroregion północny", "NUTS_NAME": "Makroregion północny", "MOUNT_TYPE": 0, "URBN_TYPE": 0, "COAST_TYPE": 0}, "geometry": {"type": "Point", "coordinates": [18.222337625000023, 53.68786037400008]}}, {"type": "Feature", "properties": {"NUTS_ID": "PL7", "LEVL_CODE": 1, "CNTR_CODE": "PL", "NAME_LATN": "Makroregion centralny", "NUTS_NAME": "Makroregion centralny", "MOUNT_TYPE": 0, "URBN_TYPE": 0, "COAST_TYPE": 0}, "geometry": {"type": "Point", "coordinates": [19.939463631000024, 51.282486290000065]}}, {"type": "Feature", "properties": {"NUTS_ID": "PL8", "LEVL_CODE": 1, "CNTR_CODE": "PL", "NAME_LATN": "Makroregion wschodni", "NUTS_NAME": "Makroregion wschodni", "MOUNT_TYPE": 0, "URBN_TYPE": 0, "COAST_TYPE": 0}, "geometry": {"type": "Point", "coordinates": [22.62881945500004, 50.57999550200003]}}, {"type": "Feature", "properties": {"NUTS_ID": "PL9", "LEVL_CODE": 1, "CNTR_CODE": "PL", "NAME_LATN": "Makroregion województwo mazowieckie", "NUTS_NAME": "Makroregion województwo mazowieckie", "MOUNT_TYPE": 0, "URBN_TYPE": 0, "COAST_TYPE": 0}, "geometry": {"type": "Point", "coordinates": [21.09213320300006, 52.36750865400006]}}, {"type": "Feature", "properties": {"NUTS_ID": "PT1", "LEVL_CODE": 1, "CNTR_CODE": "PT", "NAME_LATN": "Continente", "NUTS_NAME": "Continente", "MOUNT_TYPE": 0, "URBN_TYPE": 0, "COAST_TYPE": 0}, "geometry": {"type": "Point", "coordinates": [-7.970304767999949, 39.68675509600007]}}, {"type": "Feature", "properties": {"NUTS_ID": "PT2", "LEVL_CODE": 1, "CNTR_CODE": "PT", "NAME_LATN": "Região Autónoma dos Açores", "NUTS_NAME": "Região Autónoma dos Açores", "MOUNT_TYPE": 0, "URBN_TYPE": 0, "COAST_TYPE": 0}, "geometry": {"type": "Point", "coordinates": [-25.365939888999947, 37.78463074200005]}}, {"type": "Feature", "properties": {"NUTS_ID": "PT3", "LEVL_CODE": 1, "CNTR_CODE": "PT", "NAME_LATN": "Região Autónoma da Madeira", "NUTS_NAME": "Região Autónoma da Madeira", "MOUNT_TYPE": 0, "URBN_TYPE": 0, "COAST_TYPE": 0}, "geometry": {"type": "Point", "coordinates": [-16.950252642999942, 32.73261324200007]}}, {"type": "Feature", "properties": {"NUTS_ID": "RO1", "LEVL_CODE": 1, "CNTR_CODE": "RO", "NAME_LATN": "Macroregiunea Unu", "NUTS_NAME": "Macroregiunea Unu", "MOUNT_TYPE": 0, "URBN_TYPE": 0, "COAST_TYPE": 0}, "geometry": {"type": "Point", "coordinates": [24.067895919000023, 46.710877667000034]}}, {"type": "Feature", "properties": {"NUTS_ID": "RO2", "LEVL_CODE": 1, "CNTR_CODE": "RO", "NAME_LATN": "Macroregiunea Doi", "NUTS_NAME": "Macroregiunea Doi", "MOUNT_TYPE": 0, "URBN_TYPE": 0, "COAST_TYPE": 0}, "geometry": {"type": "Point", "coordinates": [27.236762954000028, 46.14217649900007]}}, {"type": "Feature", "properties": {"NUTS_ID": "RO3", "LEVL_CODE": 1, "CNTR_CODE": "RO", "NAME_LATN": "Macroregiunea Trei", "NUTS_NAME": "Macroregiunea Trei", "MOUNT_TYPE": 0, "URBN_TYPE": 0, "COAST_TYPE": 0}, "geometry": {"type": "Point", "coordinates": [25.88868104000005, 44.59990069200006]}}, {"type": "Feature", "properties": {"NUTS_ID": "RO4", "LEVL_CODE": 1, "CNTR_CODE": "RO", "NAME_LATN": "Macroregiunea Patru", "NUTS_NAME": "Macroregiunea Patru", "MOUNT_TYPE": 0, "URBN_TYPE": 0, "COAST_TYPE": 0}, "geometry": {"type": "Point", "coordinates": [22.793001394000044, 45.18215247300003]}}, {"type": "Feature", "properties": {"NUTS_ID": "RS1", "LEVL_CODE": 1, "CNTR_CODE": "RS", "NAME_LATN": "Serbia - sever", "NUTS_NAME": "Србија - север", "MOUNT_TYPE": 0, "URBN_TYPE": 0, "COAST_TYPE": 0}, "geometry": {"type": "Point", "coordinates": [20.129566478000072, 45.30651983300004]}}, {"type": "Feature", "properties": {"NUTS_ID": "RS2", "LEVL_CODE": 1, "CNTR_CODE": "RS", "NAME_LATN": "Serbia - jug", "NUTS_NAME": "Србија - југ", "MOUNT_TYPE": 0, "URBN_TYPE": 0, "COAST_TYPE": 0}, "geometry": {"type": "Point", "coordinates": [21.12821073400005, 43.71554144900006]}}, {"type": "Feature", "properties": {"NUTS_ID": "SE1", "LEVL_CODE": 1, "CNTR_CODE": "SE", "NAME_LATN": "Östra Sverige", "NUTS_NAME": "Östra Sverige", "MOUNT_TYPE": 0, "URBN_TYPE": 0, "COAST_TYPE": 0}, "geometry": {"type": "Point", "coordinates": [16.381065877000026, 59.26395072000008]}}, {"type": "Feature", "properties": {"NUTS_ID": "SE2", "LEVL_CODE": 1, "CNTR_CODE": "SE", "NAME_LATN": "Södra Sverige", "NUTS_NAME": "Södra Sverige", "MOUNT_TYPE": 0, "URBN_TYPE": 0, "COAST_TYPE": 0}, "geometry": {"type": "Point", "coordinates": [13.893716848000054, 57.40307897800005]}}, {"type": "Feature", "properties": {"NUTS_ID": "SE3", "LEVL_CODE": 1, "CNTR_CODE": "SE", "NAME_LATN": "Norra Sverige", "NUTS_NAME": "Norra Sverige", "MOUNT_TYPE": 0, "URBN_TYPE": 0, "COAST_TYPE": 0}, "geometry": {"type": "Point", "coordinates": [17.99066275000007, 65.44259220900005]}}, {"type": "Feature", "properties": {"NUTS_ID": "SI0", "LEVL_CODE": 1, "CNTR_CODE": "SI", "NAME_LATN": "Slovenija", "NUTS_NAME": "Slovenija", "MOUNT_TYPE": 0, "URBN_TYPE": 0, "COAST_TYPE": 0}, "geometry": {"type": "Point", "coordinates": [14.816936499000064, 46.12770392700003]}}, {"type": "Feature", "properties": {"NUTS_ID": "SK0", "LEVL_CODE": 1, "CNTR_CODE": "SK", "NAME_LATN": "Slovensko", "NUTS_NAME": "Slovensko", "MOUNT_TYPE": 0, "URBN_TYPE": 0, "COAST_TYPE": 0}, "geometry": {"type": "Point", "coordinates": [19.474110948000032, 48.704157835000046]}}, {"type": "Feature", "properties": {"NUTS_ID": "TR1", "LEVL_CODE": 1, "CNTR_CODE": "TR", "NAME_LATN": "İstanbul", "NUTS_NAME": "İstanbul", "MOUNT_TYPE": 0, "URBN_TYPE": 0, "COAST_TYPE": 0}, "geometry": {"type": "Point", "coordinates": [28.43720434000005, 41.21863598700003]}}, {"type": "Feature", "properties": {"NUTS_ID": "TR2", "LEVL_CODE": 1, "CNTR_CODE": "TR", "NAME_LATN": "Batı Marmara", "NUTS_NAME": "Batı Marmara", "MOUNT_TYPE": 0, "URBN_TYPE": 0, "COAST_TYPE": 0}, "geometry": {"type": "Point", "coordinates": [27.555234993000056, 39.82949937400008]}}, {"type": "Feature", "properties": {"NUTS_ID": "TR3", "LEVL_CODE": 1, "CNTR_CODE": "TR", "NAME_LATN": "Ege", "NUTS_NAME": "Ege", "MOUNT_TYPE": 0, "URBN_TYPE": 0, "COAST_TYPE": 0}, "geometry": {"type": "Point", "coordinates": [28.91620664900006, 38.311640950000026]}}, {"type": "Feature", "properties": {"NUTS_ID": "TR4", "LEVL_CODE": 1, "CNTR_CODE": "TR", "NAME_LATN": "Doğu Marmara", "NUTS_NAME": "Doğu Marmara", "MOUNT_TYPE": 0, "URBN_TYPE": 0, "COAST_TYPE": 0}, "geometry": {"type": "Point", "coordinates": [30.458345818000055, 40.22566713900005]}}, {"type": "Feature", "properties": {"NUTS_ID": "TR5", "LEVL_CODE": 1, "CNTR_CODE": "TR", "NAME_LATN": "Batı Anadolu", "NUTS_NAME": "Batı Anadolu", "MOUNT_TYPE": 0, "URBN_TYPE": 0, "COAST_TYPE": 0}, "geometry": {"type": "Point", "coordinates": [32.66953399500005, 38.510931853000045]}}, {"type": "Feature", "properties": {"NUTS_ID": "TR6", "LEVL_CODE": 1, "CNTR_CODE": "TR", "NAME_LATN": "Akdeniz", "NUTS_NAME": "Akdeniz", "MOUNT_TYPE": 0, "URBN_TYPE": 0, "COAST_TYPE": 0}, "geometry": {"type": "Point", "coordinates": [33.47932950300003, 36.54540266600003]}}, {"type": "Feature", "properties": {"NUTS_ID": "TR7", "LEVL_CODE": 1, "CNTR_CODE": "TR", "NAME_LATN": "Orta Anadolu", "NUTS_NAME": "Orta Anadolu", "MOUNT_TYPE": 0, "URBN_TYPE": 0, "COAST_TYPE": 0}, "geometry": {"type": "Point", "coordinates": [35.65423202300008, 39.11984746500008]}}, {"type": "Feature", "properties": {"NUTS_ID": "TR8", "LEVL_CODE": 1, "CNTR_CODE": "TR", "NAME_LATN": "Batı Karadeniz", "NUTS_NAME": "Batı Karadeniz", "MOUNT_TYPE": 0, "URBN_TYPE": 0, "COAST_TYPE": 0}, "geometry": {"type": "Point", "coordinates": [34.56820142400005, 40.99699334200005]}}, {"type": "Feature", "properties": {"NUTS_ID": "TR9", "LEVL_CODE": 1, "CNTR_CODE": "TR", "NAME_LATN": "Doğu Karadeniz", "NUTS_NAME": "Doğu Karadeniz", "MOUNT_TYPE": 0, "URBN_TYPE": 0, "COAST_TYPE": 0}, "geometry": {"type": "Point", "coordinates": [39.64990277700008, 40.76752358200008]}}, {"type": "Feature", "properties": {"NUTS_ID": "TRA", "LEVL_CODE": 1, "CNTR_CODE": "TR", "NAME_LATN": "Kuzeydoğu Anadolu", "NUTS_NAME": "Kuzeydoğu Anadolu", "MOUNT_TYPE": 0, "URBN_TYPE": 0, "COAST_TYPE": 0}, "geometry": {"type": "Point", "coordinates": [41.81654765500008, 40.045345026000064]}}, {"type": "Feature", "properties": {"NUTS_ID": "TRB", "LEVL_CODE": 1, "CNTR_CODE": "TR", "NAME_LATN": "Ortadoğu Anadolu", "NUTS_NAME": "Ortadoğu Anadolu", "MOUNT_TYPE": 0, "URBN_TYPE": 0, "COAST_TYPE": 0}, "geometry": {"type": "Point", "coordinates": [42.930232, 38.41482695500008]}}, {"type": "Feature", "properties": {"NUTS_ID": "TRC", "LEVL_CODE": 1, "CNTR_CODE": "TR", "NAME_LATN": "Güneydoğu Anadolu", "NUTS_NAME": "Güneydoğu Anadolu", "MOUNT_TYPE": 0, "URBN_TYPE": 0, "COAST_TYPE": 0}, "geometry": {"type": "Point", "coordinates": [39.954293395000036, 37.56907728900006]}}, {"type": "Feature", "properties": {"NUTS_ID": "UKC", "LEVL_CODE": 1, "CNTR_CODE": "UK", "NAME_LATN": "North East (England)", "NUTS_NAME": "North East (England)", "MOUNT_TYPE": 0, "URBN_TYPE": 0, "COAST_TYPE": 0}, "geometry": {"type": "Point", "coordinates": [-1.895393881999951, 55.028848467000046]}}, {"type": "Feature", "properties": {"NUTS_ID": "UKD", "LEVL_CODE": 1, "CNTR_CODE": "UK", "NAME_LATN": "North West (England)", "NUTS_NAME": "North West (England)", "MOUNT_TYPE": 0, "URBN_TYPE": 0, "COAST_TYPE": 0}, "geometry": {"type": "Point", "coordinates": [-3.144508967999968, 54.508149425000056]}}, {"type": "Feature", "properties": {"NUTS_ID": "UKE", "LEVL_CODE": 1, "CNTR_CODE": "UK", "NAME_LATN": "Yorkshire and the Humber", "NUTS_NAME": "Yorkshire and the Humber", "MOUNT_TYPE": 0, "URBN_TYPE": 0, "COAST_TYPE": 0}, "geometry": {"type": "Point", "coordinates": [-1.294544927999937, 53.98652516400006]}}, {"type": "Feature", "properties": {"NUTS_ID": "UKF", "LEVL_CODE": 1, "CNTR_CODE": "UK", "NAME_LATN": "East Midlands (England)", "NUTS_NAME": "East Midlands (England)", "MOUNT_TYPE": 0, "URBN_TYPE": 0, "COAST_TYPE": 0}, "geometry": {"type": "Point", "coordinates": [-0.824909595999941, 52.92163108200003]}}, {"type": "Feature", "properties": {"NUTS_ID": "UKG", "LEVL_CODE": 1, "CNTR_CODE": "UK", "NAME_LATN": "West Midlands (England)", "NUTS_NAME": "West Midlands (England)", "MOUNT_TYPE": 0, "URBN_TYPE": 0, "COAST_TYPE": 0}, "geometry": {"type": "Point", "coordinates": [-2.257744822999939, 52.48332811500006]}}, {"type": "Feature", "properties": {"NUTS_ID": "UKH", "LEVL_CODE": 1, "CNTR_CODE": "UK", "NAME_LATN": "East of England", "NUTS_NAME": "East of England", "MOUNT_TYPE": 0, "URBN_TYPE": 0, "COAST_TYPE": 0}, "geometry": {"type": "Point", "coordinates": [0.521937616000059, 52.264572791000035]}}, {"type": "Feature", "properties": {"NUTS_ID": "UKI", "LEVL_CODE": 1, "CNTR_CODE": "UK", "NAME_LATN": "London", "NUTS_NAME": "London", "MOUNT_TYPE": 0, "URBN_TYPE": 0, "COAST_TYPE": 0}, "geometry": {"type": "Point", "coordinates": [-0.098293499999954, 51.414943496000035]}}, {"type": "Feature", "properties": {"NUTS_ID": "UKJ", "LEVL_CODE": 1, "CNTR_CODE": "UK", "NAME_LATN": "South East (England)", "NUTS_NAME": "South East (England)", "MOUNT_TYPE": 0, "URBN_TYPE": 0, "COAST_TYPE": 0}, "geometry": {"type": "Point", "coordinates": [-1.124952391999955, 51.42567894700005]}}, {"type": "Feature", "properties": {"NUTS_ID": "UKK", "LEVL_CODE": 1, "CNTR_CODE": "UK", "NAME_LATN": "South West (England)", "NUTS_NAME": "South West (England)", "MOUNT_TYPE": 0, "URBN_TYPE": 0, "COAST_TYPE": 0}, "geometry": {"type": "Point", "coordinates": [-2.487929574999953, 51.210817063000036]}}, {"type": "Feature", "properties": {"NUTS_ID": "UKL", "LEVL_CODE": 1, "CNTR_CODE": "UK", "NAME_LATN": "Wales", "NUTS_NAME": "Wales", "MOUNT_TYPE": 0, "URBN_TYPE": 0, "COAST_TYPE": 0}, "geometry": {"type": "Point", "coordinates": [-3.694159481999975, 52.30145852800007]}}, {"type": "Feature", "properties": {"NUTS_ID": "UKM", "LEVL_CODE": 1, "CNTR_CODE": "UK", "NAME_LATN": "Scotland", "NUTS_NAME": "Scotland", "MOUNT_TYPE": 0, "URBN_TYPE": 0, "COAST_TYPE": 0}, "geometry": {"type": "Point", "coordinates": [-4.026466229999926, 56.54840381000008]}}, {"type": "Feature", "properties": {"NUTS_ID": "UKN", "LEVL_CODE": 1, "CNTR_CODE": "UK", "NAME_LATN": "Northern Ireland", "NUTS_NAME": "Northern Ireland", "MOUNT_TYPE": 0, "URBN_TYPE": 0, "COAST_TYPE": 0}, "geometry": {"type": "Point", "coordinates": [-6.625297036999939, 54.630550207000056]}}, {"type": "Feature", "properties": {"NUTS_ID": "NO0", "LEVL_CODE": 1, "CNTR_CODE": "NO", "NAME_LATN": "Norge", "NUTS_NAME": "Norge", "MOUNT_TYPE": 0, "URBN_TYPE": 0, "COAST_TYPE": 0}, "geometry": {"type": "Point", "coordinates": [9.298108158000048, 61.38746522000008]}}]}