{"type": "FeatureCollection", "name": "NUTS_LB_2021_4326_LEVL_0.geojson", "crs": {"type": "name", "properties": {"name": "urn:ogc:def:crs:EPSG::4326"}}, "features": [{"type": "Feature", "properties": {"NUTS_ID": "AL", "LEVL_CODE": 0, "CNTR_CODE": "AL", "NAME_LATN": "Shqipëria", "NUTS_NAME": "Shqipëria", "MOUNT_TYPE": 0, "URBN_TYPE": 0, "COAST_TYPE": 0}, "geometry": {"type": "Point", "coordinates": [20.070842279000033, 41.13894706900004]}}, {"type": "Feature", "properties": {"NUTS_ID": "AT", "LEVL_CODE": 0, "CNTR_CODE": "AT", "NAME_LATN": "Österreich", "NUTS_NAME": "Österreich", "MOUNT_TYPE": 0, "URBN_TYPE": 0, "COAST_TYPE": 0}, "geometry": {"type": "Point", "coordinates": [14.137314784000068, 47.58472242300007]}}, {"type": "Feature", "properties": {"NUTS_ID": "BE", "LEVL_CODE": 0, "CNTR_CODE": "BE", "NAME_LATN": "Belgique/België", "NUTS_NAME": "Belgique/België", "MOUNT_TYPE": 0, "URBN_TYPE": 0, "COAST_TYPE": 0}, "geometry": {"type": "Point", "coordinates": [4.659262862000048, 50.64288100300007]}}, {"type": "Feature", "properties": {"NUTS_ID": "BG", "LEVL_CODE": 0, "CNTR_CODE": "BG", "NAME_LATN": "Bulgaria", "NUTS_NAME": "България", "MOUNT_TYPE": 0, "URBN_TYPE": 0, "COAST_TYPE": 0}, "geometry": {"type": "Point", "coordinates": [25.234958283000026, 42.754595574000064]}}, {"type": "Feature", "properties": {"NUTS_ID": "CH", "LEVL_CODE": 0, "CNTR_CODE": "CH", "NAME_LATN": "Schweiz/Suisse/Svizzera", "NUTS_NAME": "Schweiz/Suisse/Svizzera", "MOUNT_TYPE": 0, "URBN_TYPE": 0, "COAST_TYPE": 0}, "geometry": {"type": "Point", "coordinates": [8.212859250000065, 46.95477141200007]}}, {"type": "Feature", "properties": {"NUTS_ID": "CY", "LEVL_CODE": 0, "CNTR_CODE": "CY", "NAME_LATN": "Kýpros", "NUTS_NAME": "Κύπρος", "MOUNT_TYPE": 0, "URBN_TYPE": 0, "COAST_TYPE": 0}, "geometry": {"type": "Point", "coordinates": [33.173903437000035, 35.028353010000046]}}, {"type": "Feature", "properties": {"NUTS_ID": "CZ", "LEVL_CODE": 0, "CNTR_CODE": "CZ", "NAME_LATN": "Česko", "NUTS_NAME": "Česko", "MOUNT_TYPE": 0, "URBN_TYPE": 0, "COAST_TYPE": 0}, "geometry": {"type": "Point", "coordinates": [15.32762464700005, 49.738194211000064]}}, {"type": "Feature", "properties": {"NUTS_ID": "DE", "LEVL_CODE": 0, "CNTR_CODE": "DE", "NAME_LATN": "Deutschland", "NUTS_NAME": "Deutschland", "MOUNT_TYPE": 0, "URBN_TYPE": 0, "COAST_TYPE": 0}, "geometry": {"type": "Point", "coordinates": [10.37858158000006, 51.07345668900007]}}, {"type": "Feature", "properties": {"NUTS_ID": "DK", "LEVL_CODE": 0, "CNTR_CODE": "DK", "NAME_LATN": "Danmark", "NUTS_NAME": "Danmark", "MOUNT_TYPE": 0, "URBN_TYPE": 0, "COAST_TYPE": 0}, "geometry": {"type": "Point", "coordinates": [9.319274915000051, 56.02714316500004]}}, {"type": "Feature", "properties": {"NUTS_ID": "EE", "LEVL_CODE": 0, "CNTR_CODE": "EE", "NAME_LATN": "Eesti", "NUTS_NAME": "Eesti", "MOUNT_TYPE": 0, "URBN_TYPE": 0, "COAST_TYPE": 0}, "geometry": {"type": "Point", "coordinates": [25.854759778000073, 58.67092932800006]}}, {"type": "Feature", "properties": {"NUTS_ID": "EL", "LEVL_CODE": 0, "CNTR_CODE": "EL", "NAME_LATN": "Elláda", "NUTS_NAME": "Ελλάδα", "MOUNT_TYPE": 0, "URBN_TYPE": 0, "COAST_TYPE": 0}, "geometry": {"type": "Point", "coordinates": [22.540150802000028, 39.498199803000034]}}, {"type": "Feature", "properties": {"NUTS_ID": "ES", "LEVL_CODE": 0, "CNTR_CODE": "ES", "NAME_LATN": "España", "NUTS_NAME": "España", "MOUNT_TYPE": 0, "URBN_TYPE": 0, "COAST_TYPE": 0}, "geometry": {"type": "Point", "coordinates": [-3.552100727999971, 40.381605886000045]}}, {"type": "Feature", "properties": {"NUTS_ID": "FI", "LEVL_CODE": 0, "CNTR_CODE": "FI", "NAME_LATN": "Suomi/Finland", "NUTS_NAME": "Suomi/Finland", "MOUNT_TYPE": 0, "URBN_TYPE": 0, "COAST_TYPE": 0}, "geometry": {"type": "Point", "coordinates": [26.27950422200007, 64.49742088600004]}}, {"type": "Feature", "properties": {"NUTS_ID": "FR", "LEVL_CODE": 0, "CNTR_CODE": "FR", "NAME_LATN": "France", "NUTS_NAME": "France", "MOUNT_TYPE": 0, "URBN_TYPE": 0, "COAST_TYPE": 0}, "geometry": {"type": "Point", "coordinates": [2.505870283000036, 46.61833102500003]}}, {"type": "Feature", "properties": {"NUTS_ID": "HR", "LEVL_CODE": 0, "CNTR_CODE": "HR", "NAME_LATN": "Hrvatska", "NUTS_NAME": "Hrvatska", "MOUNT_TYPE": 0, "URBN_TYPE": 0, "COAST_TYPE": 0}, "geometry": {"type": "Point", "coordinates": [16.48936026000007, 43.75596595800005]}}, {"type": "Feature", "properties": {"NUTS_ID": "HU", "LEVL_CODE": 0, "CNTR_CODE": "HU", "NAME_LATN": "Magyarország", "NUTS_NAME": "Magyarország", "MOUNT_TYPE": 0, "URBN_TYPE": 0, "COAST_TYPE": 0}, "geometry": {"type": "Point", "coordinates": [19.40656112000005, 47.16157156200006]}}, {"type": "Feature", "properties": {"NUTS_ID": "IE", "LEVL_CODE": 0, "CNTR_CODE": "IE", "NAME_LATN": "Éire/Ireland", "NUTS_NAME": "Éire/Ireland", "MOUNT_TYPE": 0, "URBN_TYPE": 0, "COAST_TYPE": 0}, "geometry": {"type": "Point", "coordinates": [-8.090168486999971, 53.17941730200005]}}, {"type": "Feature", "properties": {"NUTS_ID": "IS", "LEVL_CODE": 0, "CNTR_CODE": "IS", "NAME_LATN": "Ísland", "NUTS_NAME": "Ísland", "MOUNT_TYPE": 0, "URBN_TYPE": 0, "COAST_TYPE": 0}, "geometry": {"type": "Point", "coordinates": [-18.85686169099995, 64.75596913900006]}}, {"type": "Feature", "properties": {"NUTS_ID": "IT", "LEVL_CODE": 0, "CNTR_CODE": "IT", "NAME_LATN": "Italia", "NUTS_NAME": "Italia", "MOUNT_TYPE": 0, "URBN_TYPE": 0, "COAST_TYPE": 0}, "geometry": {"type": "Point", "coordinates": [12.532198841000024, 42.83703417900006]}}, {"type": "Feature", "properties": {"NUTS_ID": "LI", "LEVL_CODE": 0, "CNTR_CODE": "LI", "NAME_LATN": "Liechtenstein", "NUTS_NAME": "Liechtenstein", "MOUNT_TYPE": 0, "URBN_TYPE": 0, "COAST_TYPE": 0}, "geometry": {"type": "Point", "coordinates": [9.553350187000035, 47.13833352000006]}}, {"type": "Feature", "properties": {"NUTS_ID": "LT", "LEVL_CODE": 0, "CNTR_CODE": "LT", "NAME_LATN": "Lietuva", "NUTS_NAME": "Lietuva", "MOUNT_TYPE": 0, "URBN_TYPE": 0, "COAST_TYPE": 0}, "geometry": {"type": "Point", "coordinates": [23.91974377300005, 55.33513519700006]}}, {"type": "Feature", "properties": {"NUTS_ID": "LU", "LEVL_CODE": 0, "CNTR_CODE": "LU", "NAME_LATN": "Luxembourg", "NUTS_NAME": "Luxembourg", "MOUNT_TYPE": 0, "URBN_TYPE": 0, "COAST_TYPE": 0}, "geometry": {"type": "Point", "coordinates": [6.094280149000042, 49.77104423600008]}}, {"type": "Feature", "properties": {"NUTS_ID": "LV", "LEVL_CODE": 0, "CNTR_CODE": "LV", "NAME_LATN": "Latvija", "NUTS_NAME": "Latvija", "MOUNT_TYPE": 0, "URBN_TYPE": 0, "COAST_TYPE": 0}, "geometry": {"type": "Point", "coordinates": [26.38197612500005, 56.68294994000007]}}, {"type": "Feature", "properties": {"NUTS_ID": "ME", "LEVL_CODE": 0, "CNTR_CODE": "ME", "NAME_LATN": "Crna Gora", "NUTS_NAME": "Црна Гора", "MOUNT_TYPE": 0, "URBN_TYPE": 0, "COAST_TYPE": 0}, "geometry": {"type": "Point", "coordinates": [19.268966068000054, 42.77213980600004]}}, {"type": "Feature", "properties": {"NUTS_ID": "MK", "LEVL_CODE": 0, "CNTR_CODE": "MK", "NAME_LATN": "Severna Makedonija", "NUTS_NAME": "Северна Македонија", "MOUNT_TYPE": 0, "URBN_TYPE": 0, "COAST_TYPE": 0}, "geometry": {"type": "Point", "coordinates": [21.696609463000073, 41.59812201200003]}}, {"type": "Feature", "properties": {"NUTS_ID": "MT", "LEVL_CODE": 0, "CNTR_CODE": "MT", "NAME_LATN": "Malta", "NUTS_NAME": "Malta", "MOUNT_TYPE": 0, "URBN_TYPE": 0, "COAST_TYPE": 0}, "geometry": {"type": "Point", "coordinates": [14.43119451900003, 35.88603830200003]}}, {"type": "Feature", "properties": {"NUTS_ID": "NL", "LEVL_CODE": 0, "CNTR_CODE": "NL", "NAME_LATN": "Nederland", "NUTS_NAME": "Nederland", "MOUNT_TYPE": 0, "URBN_TYPE": 0, "COAST_TYPE": 0}, "geometry": {"type": "Point", "coordinates": [5.645977845000061, 52.293163906000075]}}, {"type": "Feature", "properties": {"NUTS_ID": "PL", "LEVL_CODE": 0, "CNTR_CODE": "PL", "NAME_LATN": "Polska", "NUTS_NAME": "Polska", "MOUNT_TYPE": 0, "URBN_TYPE": 0, "COAST_TYPE": 0}, "geometry": {"type": "Point", "coordinates": [19.406587210000055, 52.13089972900008]}}, {"type": "Feature", "properties": {"NUTS_ID": "PT", "LEVL_CODE": 0, "CNTR_CODE": "PT", "NAME_LATN": "Portugal", "NUTS_NAME": "Portugal", "MOUNT_TYPE": 0, "URBN_TYPE": 0, "COAST_TYPE": 0}, "geometry": {"type": "Point", "coordinates": [-7.970304767999949, 39.68675509600007]}}, {"type": "Feature", "properties": {"NUTS_ID": "RO", "LEVL_CODE": 0, "CNTR_CODE": "RO", "NAME_LATN": "România", "NUTS_NAME": "România", "MOUNT_TYPE": 0, "URBN_TYPE": 0, "COAST_TYPE": 0}, "geometry": {"type": "Point", "coordinates": [24.97779296500005, 45.83605277100003]}}, {"type": "Feature", "properties": {"NUTS_ID": "RS", "LEVL_CODE": 0, "CNTR_CODE": "RS", "NAME_LATN": "Serbia", "NUTS_NAME": "Srbija/Сpбија", "MOUNT_TYPE": 0, "URBN_TYPE": 0, "COAST_TYPE": 0}, "geometry": {"type": "Point", "coordinates": [20.79749003300003, 44.23545647900005]}}, {"type": "Feature", "properties": {"NUTS_ID": "SE", "LEVL_CODE": 0, "CNTR_CODE": "SE", "NAME_LATN": "Sverige", "NUTS_NAME": "Sverige", "MOUNT_TYPE": 0, "URBN_TYPE": 0, "COAST_TYPE": 0}, "geometry": {"type": "Point", "coordinates": [14.444529167000042, 60.64183000400004]}}, {"type": "Feature", "properties": {"NUTS_ID": "SI", "LEVL_CODE": 0, "CNTR_CODE": "SI", "NAME_LATN": "Slovenija", "NUTS_NAME": "Slovenija", "MOUNT_TYPE": 0, "URBN_TYPE": 0, "COAST_TYPE": 0}, "geometry": {"type": "Point", "coordinates": [14.816936499000064, 46.12770392600004]}}, {"type": "Feature", "properties": {"NUTS_ID": "SK", "LEVL_CODE": 0, "CNTR_CODE": "SK", "NAME_LATN": "Slovensko", "NUTS_NAME": "Slovensko", "MOUNT_TYPE": 0, "URBN_TYPE": 0, "COAST_TYPE": 0}, "geometry": {"type": "Point", "coordinates": [19.474110948000032, 48.704157835000046]}}, {"type": "Feature", "properties": {"NUTS_ID": "TR", "LEVL_CODE": 0, "CNTR_CODE": "TR", "NAME_LATN": "Türkiye", "NUTS_NAME": "Türkiye", "MOUNT_TYPE": 0, "URBN_TYPE": 0, "COAST_TYPE": 0}, "geometry": {"type": "Point", "coordinates": [35.47094016500006, 38.99232753100006]}}, {"type": "Feature", "properties": {"NUTS_ID": "UK", "LEVL_CODE": 0, "CNTR_CODE": "UK", "NAME_LATN": "United Kingdom", "NUTS_NAME": "United Kingdom", "MOUNT_TYPE": 0, "URBN_TYPE": 0, "COAST_TYPE": 0}, "geometry": {"type": "Point", "coordinates": [-2.108558762999962, 53.27864109200004]}}, {"type": "Feature", "properties": {"NUTS_ID": "NO", "LEVL_CODE": 0, "CNTR_CODE": "NO", "NAME_LATN": "Norge", "NUTS_NAME": "Norge", "MOUNT_TYPE": 0, "URBN_TYPE": 0, "COAST_TYPE": 0}, "geometry": {"type": "Point", "coordinates": [9.298108158000048, 61.38746522000008]}}]}