{"type": "FeatureCollection", "name": "NUTS_LB_2021_4326_LEVL_2.geojson", "crs": {"type": "name", "properties": {"name": "urn:ogc:def:crs:EPSG::4326"}}, "features": [{"type": "Feature", "properties": {"NUTS_ID": "DEF0", "LEVL_CODE": 2, "CNTR_CODE": "DE", "NAME_LATN": "Schleswig-Holstein", "NUTS_NAME": "Schleswig-Holstein", "MOUNT_TYPE": 0, "URBN_TYPE": 0, "COAST_TYPE": 0}, "geometry": {"type": "Point", "coordinates": [9.821161782000047, 54.08035378900007]}}, {"type": "Feature", "properties": {"NUTS_ID": "DEG0", "LEVL_CODE": 2, "CNTR_CODE": "DE", "NAME_LATN": "Thüringen", "NUTS_NAME": "Thüringen", "MOUNT_TYPE": 0, "URBN_TYPE": 0, "COAST_TYPE": 0}, "geometry": {"type": "Point", "coordinates": [11.021763453000062, 50.90437942500006]}}, {"type": "Feature", "properties": {"NUTS_ID": "DK01", "LEVL_CODE": 2, "CNTR_CODE": "DK", "NAME_LATN": "Hovedstaden", "NUTS_NAME": "Hovedstaden", "MOUNT_TYPE": 0, "URBN_TYPE": 0, "COAST_TYPE": 0}, "geometry": {"type": "Point", "coordinates": [12.329593541000065, 55.86176690800005]}}, {"type": "Feature", "properties": {"NUTS_ID": "DK02", "LEVL_CODE": 2, "CNTR_CODE": "DK", "NAME_LATN": "Sjælland", "NUTS_NAME": "Sjælland", "MOUNT_TYPE": 0, "URBN_TYPE": 0, "COAST_TYPE": 0}, "geometry": {"type": "Point", "coordinates": [11.750947223000026, 55.437645014000054]}}, {"type": "Feature", "properties": {"NUTS_ID": "DK03", "LEVL_CODE": 2, "CNTR_CODE": "DK", "NAME_LATN": "Syddanmark", "NUTS_NAME": "Syddanmark", "MOUNT_TYPE": 0, "URBN_TYPE": 0, "COAST_TYPE": 0}, "geometry": {"type": "Point", "coordinates": [9.05686233800003, 55.40383893600006]}}, {"type": "Feature", "properties": {"NUTS_ID": "DK04", "LEVL_CODE": 2, "CNTR_CODE": "DK", "NAME_LATN": "Midtjylland", "NUTS_NAME": "Midtjylland", "MOUNT_TYPE": 0, "URBN_TYPE": 0, "COAST_TYPE": 0}, "geometry": {"type": "Point", "coordinates": [9.399645278000037, 56.245707647000074]}}, {"type": "Feature", "properties": {"NUTS_ID": "DK05", "LEVL_CODE": 2, "CNTR_CODE": "DK", "NAME_LATN": "Nordjylland", "NUTS_NAME": "Nordjylland", "MOUNT_TYPE": 0, "URBN_TYPE": 0, "COAST_TYPE": 0}, "geometry": {"type": "Point", "coordinates": [9.952960314000052, 57.27194091100006]}}, {"type": "Feature", "properties": {"NUTS_ID": "EE00", "LEVL_CODE": 2, "CNTR_CODE": "EE", "NAME_LATN": "Eesti", "NUTS_NAME": "Eesti", "MOUNT_TYPE": 0, "URBN_TYPE": 0, "COAST_TYPE": 0}, "geometry": {"type": "Point", "coordinates": [25.854759778000073, 58.67092932800006]}}, {"type": "Feature", "properties": {"NUTS_ID": "EL30", "LEVL_CODE": 2, "CNTR_CODE": "EL", "NAME_LATN": "Attiki", "NUTS_NAME": "Aττική", "MOUNT_TYPE": 0, "URBN_TYPE": 0, "COAST_TYPE": 0}, "geometry": {"type": "Point", "coordinates": [23.811409824000066, 38.05480841700006]}}, {"type": "Feature", "properties": {"NUTS_ID": "EL41", "LEVL_CODE": 2, "CNTR_CODE": "EL", "NAME_LATN": "Voreio Aigaio", "NUTS_NAME": "Βόρειο Αιγαίο", "MOUNT_TYPE": 0, "URBN_TYPE": 0, "COAST_TYPE": 0}, "geometry": {"type": "Point", "coordinates": [26.018886295000073, 39.19739609900006]}}, {"type": "Feature", "properties": {"NUTS_ID": "EL42", "LEVL_CODE": 2, "CNTR_CODE": "EL", "NAME_LATN": "Notio Aigaio", "NUTS_NAME": "Νότιο Αιγαίο", "MOUNT_TYPE": 0, "URBN_TYPE": 0, "COAST_TYPE": 0}, "geometry": {"type": "Point", "coordinates": [27.91473981300004, 36.160075851000045]}}, {"type": "Feature", "properties": {"NUTS_ID": "EL43", "LEVL_CODE": 2, "CNTR_CODE": "EL", "NAME_LATN": "Kriti", "NUTS_NAME": "Κρήτη", "MOUNT_TYPE": 0, "URBN_TYPE": 0, "COAST_TYPE": 0}, "geometry": {"type": "Point", "coordinates": [24.822414967000043, 35.224757287000045]}}, {"type": "Feature", "properties": {"NUTS_ID": "EL51", "LEVL_CODE": 2, "CNTR_CODE": "EL", "NAME_LATN": "Anatoliki Makedonia, Thraki", "NUTS_NAME": "Aνατολική Μακεδονία, Θράκη", "MOUNT_TYPE": 0, "URBN_TYPE": 0, "COAST_TYPE": 0}, "geometry": {"type": "Point", "coordinates": [25.85027772600006, 41.075729368000054]}}, {"type": "Feature", "properties": {"NUTS_ID": "EL52", "LEVL_CODE": 2, "CNTR_CODE": "EL", "NAME_LATN": "Kentriki Makedonia", "NUTS_NAME": "Κεντρική Μακεδονία", "MOUNT_TYPE": 0, "URBN_TYPE": 0, "COAST_TYPE": 0}, "geometry": {"type": "Point", "coordinates": [22.91264129700005, 40.78908428500006]}}, {"type": "Feature", "properties": {"NUTS_ID": "EL53", "LEVL_CODE": 2, "CNTR_CODE": "EL", "NAME_LATN": "Dytiki Makedonia", "NUTS_NAME": "Δυτική Μακεδονία", "MOUNT_TYPE": 0, "URBN_TYPE": 0, "COAST_TYPE": 0}, "geometry": {"type": "Point", "coordinates": [21.48750138200006, 40.36462485700008]}}, {"type": "Feature", "properties": {"NUTS_ID": "EL54", "LEVL_CODE": 2, "CNTR_CODE": "EL", "NAME_LATN": "Ipeiros", "NUTS_NAME": "Ήπειρος", "MOUNT_TYPE": 0, "URBN_TYPE": 0, "COAST_TYPE": 0}, "geometry": {"type": "Point", "coordinates": [20.785100017000048, 39.60392317600008]}}, {"type": "Feature", "properties": {"NUTS_ID": "EL61", "LEVL_CODE": 2, "CNTR_CODE": "EL", "NAME_LATN": "Thessalia", "NUTS_NAME": "Θεσσαλία", "MOUNT_TYPE": 0, "URBN_TYPE": 0, "COAST_TYPE": 0}, "geometry": {"type": "Point", "coordinates": [22.149349414000028, 39.553347347000056]}}, {"type": "Feature", "properties": {"NUTS_ID": "EL62", "LEVL_CODE": 2, "CNTR_CODE": "EL", "NAME_LATN": "Ionia Nisia", "NUTS_NAME": "Ιόνια Νησιά", "MOUNT_TYPE": 0, "URBN_TYPE": 0, "COAST_TYPE": 0}, "geometry": {"type": "Point", "coordinates": [20.545883667000055, 38.24593517000005]}}, {"type": "Feature", "properties": {"NUTS_ID": "EL63", "LEVL_CODE": 2, "CNTR_CODE": "EL", "NAME_LATN": "Dytiki Elláda", "NUTS_NAME": "Δυτική Ελλάδα", "MOUNT_TYPE": 0, "URBN_TYPE": 0, "COAST_TYPE": 0}, "geometry": {"type": "Point", "coordinates": [21.500458776000073, 37.870836895000025]}}, {"type": "Feature", "properties": {"NUTS_ID": "EL64", "LEVL_CODE": 2, "CNTR_CODE": "EL", "NAME_LATN": "Sterea Elláda", "NUTS_NAME": "Στερεά Ελλάδα", "MOUNT_TYPE": 0, "URBN_TYPE": 0, "COAST_TYPE": 0}, "geometry": {"type": "Point", "coordinates": [22.724738183000056, 38.557981346000076]}}, {"type": "Feature", "properties": {"NUTS_ID": "EL65", "LEVL_CODE": 2, "CNTR_CODE": "EL", "NAME_LATN": "Peloponnisos", "NUTS_NAME": "Πελοπόννησος", "MOUNT_TYPE": 0, "URBN_TYPE": 0, "COAST_TYPE": 0}, "geometry": {"type": "Point", "coordinates": [22.463048939000032, 37.39700104700006]}}, {"type": "Feature", "properties": {"NUTS_ID": "ES11", "LEVL_CODE": 2, "CNTR_CODE": "ES", "NAME_LATN": "Galicia", "NUTS_NAME": "Galicia", "MOUNT_TYPE": 0, "URBN_TYPE": 0, "COAST_TYPE": 0}, "geometry": {"type": "Point", "coordinates": [-7.895674269999972, 42.743126448000055]}}, {"type": "Feature", "properties": {"NUTS_ID": "ES12", "LEVL_CODE": 2, "CNTR_CODE": "ES", "NAME_LATN": "Principado de Asturias", "NUTS_NAME": "Principado de Asturias", "MOUNT_TYPE": 0, "URBN_TYPE": 0, "COAST_TYPE": 0}, "geometry": {"type": "Point", "coordinates": [-5.997242473999961, 43.301705490000074]}}, {"type": "Feature", "properties": {"NUTS_ID": "ES13", "LEVL_CODE": 2, "CNTR_CODE": "ES", "NAME_LATN": "Cantabria", "NUTS_NAME": "Cantabria", "MOUNT_TYPE": 0, "URBN_TYPE": 0, "COAST_TYPE": 0}, "geometry": {"type": "Point", "coordinates": [-4.060605221999936, 43.18753086700008]}}, {"type": "Feature", "properties": {"NUTS_ID": "ES21", "LEVL_CODE": 2, "CNTR_CODE": "ES", "NAME_LATN": "País Vasco", "NUTS_NAME": "País Vasco", "MOUNT_TYPE": 0, "URBN_TYPE": 0, "COAST_TYPE": 0}, "geometry": {"type": "Point", "coordinates": [-2.586340130999929, 43.06508445700007]}}, {"type": "Feature", "properties": {"NUTS_ID": "ES22", "LEVL_CODE": 2, "CNTR_CODE": "ES", "NAME_LATN": "Comunidad Foral de Navarra", "NUTS_NAME": "Comunidad Foral de Navarra", "MOUNT_TYPE": 0, "URBN_TYPE": 0, "COAST_TYPE": 0}, "geometry": {"type": "Point", "coordinates": [-1.650812641999948, 42.71170005600004]}}, {"type": "Feature", "properties": {"NUTS_ID": "ES23", "LEVL_CODE": 2, "CNTR_CODE": "ES", "NAME_LATN": "La Rioja", "NUTS_NAME": "La Rioja", "MOUNT_TYPE": 0, "URBN_TYPE": 0, "COAST_TYPE": 0}, "geometry": {"type": "Point", "coordinates": [-2.433239081999943, 42.31321682500004]}}, {"type": "Feature", "properties": {"NUTS_ID": "ES24", "LEVL_CODE": 2, "CNTR_CODE": "ES", "NAME_LATN": "Aragón", "NUTS_NAME": "Aragón", "MOUNT_TYPE": 0, "URBN_TYPE": 0, "COAST_TYPE": 0}, "geometry": {"type": "Point", "coordinates": [-0.675068838999948, 41.50703675300008]}}, {"type": "Feature", "properties": {"NUTS_ID": "ES30", "LEVL_CODE": 2, "CNTR_CODE": "ES", "NAME_LATN": "Comunidad de Madrid", "NUTS_NAME": "Comunidad de Madrid", "MOUNT_TYPE": 0, "URBN_TYPE": 0, "COAST_TYPE": 0}, "geometry": {"type": "Point", "coordinates": [-3.711936334999962, 40.50075956200004]}}, {"type": "Feature", "properties": {"NUTS_ID": "ES41", "LEVL_CODE": 2, "CNTR_CODE": "ES", "NAME_LATN": "Castilla y León", "NUTS_NAME": "Castilla y León", "MOUNT_TYPE": 0, "URBN_TYPE": 0, "COAST_TYPE": 0}, "geometry": {"type": "Point", "coordinates": [-4.817213139999978, 41.74473159000007]}}, {"type": "Feature", "properties": {"NUTS_ID": "ES42", "LEVL_CODE": 2, "CNTR_CODE": "ES", "NAME_LATN": "Castilla-La Mancha", "NUTS_NAME": "Castilla-La Mancha", "MOUNT_TYPE": 0, "URBN_TYPE": 0, "COAST_TYPE": 0}, "geometry": {"type": "Point", "coordinates": [-3.135757423999962, 39.27477217200004]}}, {"type": "Feature", "properties": {"NUTS_ID": "ES43", "LEVL_CODE": 2, "CNTR_CODE": "ES", "NAME_LATN": "Extremadura", "NUTS_NAME": "Extremadura", "MOUNT_TYPE": 0, "URBN_TYPE": 0, "COAST_TYPE": 0}, "geometry": {"type": "Point", "coordinates": [-6.160149455999942, 39.189248718000044]}}, {"type": "Feature", "properties": {"NUTS_ID": "ES51", "LEVL_CODE": 2, "CNTR_CODE": "ES", "NAME_LATN": "Cataluña", "NUTS_NAME": "Cataluña", "MOUNT_TYPE": 0, "URBN_TYPE": 0, "COAST_TYPE": 0}, "geometry": {"type": "Point", "coordinates": [1.507768301000056, 41.80053464800005]}}, {"type": "Feature", "properties": {"NUTS_ID": "ES52", "LEVL_CODE": 2, "CNTR_CODE": "ES", "NAME_LATN": "Comunitat Valenciana", "NUTS_NAME": "Comunitat Valenciana", "MOUNT_TYPE": 0, "URBN_TYPE": 0, "COAST_TYPE": 0}, "geometry": {"type": "Point", "coordinates": [-0.53995232699998, 39.39450827300004]}}, {"type": "Feature", "properties": {"NUTS_ID": "ES53", "LEVL_CODE": 2, "CNTR_CODE": "ES", "NAME_LATN": "Illes Balears", "NUTS_NAME": "Illes Balears", "MOUNT_TYPE": 0, "URBN_TYPE": 0, "COAST_TYPE": 0}, "geometry": {"type": "Point", "coordinates": [2.963384221000069, 39.607454569000026]}}, {"type": "Feature", "properties": {"NUTS_ID": "ES61", "LEVL_CODE": 2, "CNTR_CODE": "ES", "NAME_LATN": "Andalucía", "NUTS_NAME": "Andalucía", "MOUNT_TYPE": 0, "URBN_TYPE": 0, "COAST_TYPE": 0}, "geometry": {"type": "Point", "coordinates": [-4.580369581999946, 37.46072716500004]}}, {"type": "Feature", "properties": {"NUTS_ID": "ES62", "LEVL_CODE": 2, "CNTR_CODE": "ES", "NAME_LATN": "Región de Murcia", "NUTS_NAME": "Región de Murcia", "MOUNT_TYPE": 0, "URBN_TYPE": 0, "COAST_TYPE": 0}, "geometry": {"type": "Point", "coordinates": [-1.490742157999932, 37.99989478600003]}}, {"type": "Feature", "properties": {"NUTS_ID": "ES63", "LEVL_CODE": 2, "CNTR_CODE": "ES", "NAME_LATN": "Ciudad de Ceuta", "NUTS_NAME": "Ciudad de Ceuta", "MOUNT_TYPE": 0, "URBN_TYPE": 0, "COAST_TYPE": 0}, "geometry": {"type": "Point", "coordinates": [-5.35427896799996, 35.895798984000066]}}, {"type": "Feature", "properties": {"NUTS_ID": "ES64", "LEVL_CODE": 2, "CNTR_CODE": "ES", "NAME_LATN": "Ciudad de Melilla", "NUTS_NAME": "Ciudad de Melilla", "MOUNT_TYPE": 0, "URBN_TYPE": 0, "COAST_TYPE": 0}, "geometry": {"type": "Point", "coordinates": [-2.950932161999958, 35.296954381000035]}}, {"type": "Feature", "properties": {"NUTS_ID": "ES70", "LEVL_CODE": 2, "CNTR_CODE": "ES", "NAME_LATN": "Canarias", "NUTS_NAME": "Canarias", "MOUNT_TYPE": 0, "URBN_TYPE": 0, "COAST_TYPE": 0}, "geometry": {"type": "Point", "coordinates": [-16.564575257999934, 28.245655233000036]}}, {"type": "Feature", "properties": {"NUTS_ID": "FI19", "LEVL_CODE": 2, "CNTR_CODE": "FI", "NAME_LATN": "Länsi-Suomi", "NUTS_NAME": "Länsi-Suomi", "MOUNT_TYPE": 0, "URBN_TYPE": 0, "COAST_TYPE": 0}, "geometry": {"type": "Point", "coordinates": [23.714215427000056, 62.322196587000064]}}, {"type": "Feature", "properties": {"NUTS_ID": "FI1B", "LEVL_CODE": 2, "CNTR_CODE": "FI", "NAME_LATN": "Helsinki-Uusimaa", "NUTS_NAME": "Helsinki-Uusimaa", "MOUNT_TYPE": 0, "URBN_TYPE": 0, "COAST_TYPE": 0}, "geometry": {"type": "Point", "coordinates": [24.75117376600008, 60.38174106400004]}}, {"type": "Feature", "properties": {"NUTS_ID": "FI1C", "LEVL_CODE": 2, "CNTR_CODE": "FI", "NAME_LATN": "Etelä-Suomi", "NUTS_NAME": "Etelä-Suomi", "MOUNT_TYPE": 0, "URBN_TYPE": 0, "COAST_TYPE": 0}, "geometry": {"type": "Point", "coordinates": [25.701245148000055, 61.22250607600006]}}, {"type": "Feature", "properties": {"NUTS_ID": "FI1D", "LEVL_CODE": 2, "CNTR_CODE": "FI", "NAME_LATN": "Pohjois- ja Itä-Suomi", "NUTS_NAME": "Pohjois- ja Itä-Suomi", "MOUNT_TYPE": 0, "URBN_TYPE": 0, "COAST_TYPE": 0}, "geometry": {"type": "Point", "coordinates": [27.08436049000005, 65.63660848900008]}}, {"type": "Feature", "properties": {"NUTS_ID": "FI20", "LEVL_CODE": 2, "CNTR_CODE": "FI", "NAME_LATN": "Åland", "NUTS_NAME": "Åland", "MOUNT_TYPE": 0, "URBN_TYPE": 0, "COAST_TYPE": 0}, "geometry": {"type": "Point", "coordinates": [20.093127609000078, 60.265317561000074]}}, {"type": "Feature", "properties": {"NUTS_ID": "FR10", "LEVL_CODE": 2, "CNTR_CODE": "FR", "NAME_LATN": "Ile-de-France", "NUTS_NAME": "Ile-de-France", "MOUNT_TYPE": 0, "URBN_TYPE": 0, "COAST_TYPE": 0}, "geometry": {"type": "Point", "coordinates": [2.52339947400003, 48.71962269800008]}}, {"type": "Feature", "properties": {"NUTS_ID": "FRB0", "LEVL_CODE": 2, "CNTR_CODE": "FR", "NAME_LATN": "Centre — Val de Loire", "NUTS_NAME": "Centre — Val de Loire", "MOUNT_TYPE": 0, "URBN_TYPE": 0, "COAST_TYPE": 0}, "geometry": {"type": "Point", "coordinates": [1.677585891000035, 47.48105230700003]}}, {"type": "Feature", "properties": {"NUTS_ID": "FRC1", "LEVL_CODE": 2, "CNTR_CODE": "FR", "NAME_LATN": "Bourgogne", "NUTS_NAME": "Bourgogne", "MOUNT_TYPE": 0, "URBN_TYPE": 0, "COAST_TYPE": 0}, "geometry": {"type": "Point", "coordinates": [4.153071043000068, 47.253658028000075]}}, {"type": "Feature", "properties": {"NUTS_ID": "FRC2", "LEVL_CODE": 2, "CNTR_CODE": "FR", "NAME_LATN": "Franche-Comté", "NUTS_NAME": "Franche-Comté", "MOUNT_TYPE": 0, "URBN_TYPE": 0, "COAST_TYPE": 0}, "geometry": {"type": "Point", "coordinates": [6.079541395000035, 47.19715929200004]}}, {"type": "Feature", "properties": {"NUTS_ID": "FRD1", "LEVL_CODE": 2, "CNTR_CODE": "FR", "NAME_LATN": "Basse-Normandie", "NUTS_NAME": "Basse-Normandie", "MOUNT_TYPE": 0, "URBN_TYPE": 0, "COAST_TYPE": 0}, "geometry": {"type": "Point", "coordinates": [-0.474205680999944, 48.90923657800005]}}, {"type": "Feature", "properties": {"NUTS_ID": "FRD2", "LEVL_CODE": 2, "CNTR_CODE": "FR", "NAME_LATN": "Haute-Normandie", "NUTS_NAME": "Haute-Normandie", "MOUNT_TYPE": 0, "URBN_TYPE": 0, "COAST_TYPE": 0}, "geometry": {"type": "Point", "coordinates": [1.028580870000042, 49.390949902000045]}}, {"type": "Feature", "properties": {"NUTS_ID": "FRE1", "LEVL_CODE": 2, "CNTR_CODE": "FR", "NAME_LATN": "Nord-Pas de Calais", "NUTS_NAME": "Nord-Pas de Calais", "MOUNT_TYPE": 0, "URBN_TYPE": 0, "COAST_TYPE": 0}, "geometry": {"type": "Point", "coordinates": [2.709785174000046, 50.47890314600005]}}, {"type": "Feature", "properties": {"NUTS_ID": "FRE2", "LEVL_CODE": 2, "CNTR_CODE": "FR", "NAME_LATN": "Picardie", "NUTS_NAME": "Picardie", "MOUNT_TYPE": 0, "URBN_TYPE": 0, "COAST_TYPE": 0}, "geometry": {"type": "Point", "coordinates": [2.799866175000034, 49.64057602200006]}}, {"type": "Feature", "properties": {"NUTS_ID": "FRF1", "LEVL_CODE": 2, "CNTR_CODE": "FR", "NAME_LATN": "Alsace", "NUTS_NAME": "Alsace", "MOUNT_TYPE": 0, "URBN_TYPE": 0, "COAST_TYPE": 0}, "geometry": {"type": "Point", "coordinates": [7.451482332000069, 48.31826142800003]}}, {"type": "Feature", "properties": {"NUTS_ID": "FRF2", "LEVL_CODE": 2, "CNTR_CODE": "FR", "NAME_LATN": "Champagne-Ardenne", "NUTS_NAME": "Champagne-Ardenne", "MOUNT_TYPE": 0, "URBN_TYPE": 0, "COAST_TYPE": 0}, "geometry": {"type": "Point", "coordinates": [4.538670371000023, 48.74349197400005]}}, {"type": "Feature", "properties": {"NUTS_ID": "FRF3", "LEVL_CODE": 2, "CNTR_CODE": "FR", "NAME_LATN": "Lorraine", "NUTS_NAME": "Lorraine", "MOUNT_TYPE": 0, "URBN_TYPE": 0, "COAST_TYPE": 0}, "geometry": {"type": "Point", "coordinates": [6.135905113000035, 48.75497334900007]}}, {"type": "Feature", "properties": {"NUTS_ID": "FRG0", "LEVL_CODE": 2, "CNTR_CODE": "FR", "NAME_LATN": "Pays de la Loire", "NUTS_NAME": "Pays de la Loire", "MOUNT_TYPE": 0, "URBN_TYPE": 0, "COAST_TYPE": 0}, "geometry": {"type": "Point", "coordinates": [-0.795870281999953, 47.493574960000046]}}, {"type": "Feature", "properties": {"NUTS_ID": "FRH0", "LEVL_CODE": 2, "CNTR_CODE": "FR", "NAME_LATN": "Bretagne", "NUTS_NAME": "Bretagne", "MOUNT_TYPE": 0, "URBN_TYPE": 0, "COAST_TYPE": 0}, "geometry": {"type": "Point", "coordinates": [-2.788341840999976, 48.165706801000056]}}, {"type": "Feature", "properties": {"NUTS_ID": "FRI1", "LEVL_CODE": 2, "CNTR_CODE": "FR", "NAME_LATN": "Aquitaine", "NUTS_NAME": "Aquitaine", "MOUNT_TYPE": 0, "URBN_TYPE": 0, "COAST_TYPE": 0}, "geometry": {"type": "Point", "coordinates": [-0.218617363999954, 44.36937011400005]}}, {"type": "Feature", "properties": {"NUTS_ID": "FRI2", "LEVL_CODE": 2, "CNTR_CODE": "FR", "NAME_LATN": "Limousin", "NUTS_NAME": "Limousin", "MOUNT_TYPE": 0, "URBN_TYPE": 0, "COAST_TYPE": 0}, "geometry": {"type": "Point", "coordinates": [1.720371054000054, 45.76916453800004]}}, {"type": "Feature", "properties": {"NUTS_ID": "FRI3", "LEVL_CODE": 2, "CNTR_CODE": "FR", "NAME_LATN": "Poitou-Charentes", "NUTS_NAME": "Poitou-Charentes", "MOUNT_TYPE": 0, "URBN_TYPE": 0, "COAST_TYPE": 0}, "geometry": {"type": "Point", "coordinates": [-0.066887731999941, 46.16435182500004]}}, {"type": "Feature", "properties": {"NUTS_ID": "FRJ1", "LEVL_CODE": 2, "CNTR_CODE": "FR", "NAME_LATN": "Languedoc-Roussillon", "NUTS_NAME": "Languedoc-Roussillon", "MOUNT_TYPE": 0, "URBN_TYPE": 0, "COAST_TYPE": 0}, "geometry": {"type": "Point", "coordinates": [3.249981269000045, 43.607262185000025]}}, {"type": "Feature", "properties": {"NUTS_ID": "FRJ2", "LEVL_CODE": 2, "CNTR_CODE": "FR", "NAME_LATN": "Midi-Pyrénées", "NUTS_NAME": "Midi-Pyrénées", "MOUNT_TYPE": 0, "URBN_TYPE": 0, "COAST_TYPE": 0}, "geometry": {"type": "Point", "coordinates": [1.491101034000053, 43.77102808700005]}}, {"type": "Feature", "properties": {"NUTS_ID": "FRK1", "LEVL_CODE": 2, "CNTR_CODE": "FR", "NAME_LATN": "Auvergne", "NUTS_NAME": "Auvergne", "MOUNT_TYPE": 0, "URBN_TYPE": 0, "COAST_TYPE": 0}, "geometry": {"type": "Point", "coordinates": [3.158379762000038, 45.66113732600007]}}, {"type": "Feature", "properties": {"NUTS_ID": "FRK2", "LEVL_CODE": 2, "CNTR_CODE": "FR", "NAME_LATN": "Rhône-Alpes", "NUTS_NAME": "Rhône-Alpes", "MOUNT_TYPE": 0, "URBN_TYPE": 0, "COAST_TYPE": 0}, "geometry": {"type": "Point", "coordinates": [5.344763227000044, 45.442024751000076]}}, {"type": "Feature", "properties": {"NUTS_ID": "FRL0", "LEVL_CODE": 2, "CNTR_CODE": "FR", "NAME_LATN": "Provence-Alpes-Côte d’Azur", "NUTS_NAME": "Provence-Alpes-Côte d’Azur", "MOUNT_TYPE": 0, "URBN_TYPE": 0, "COAST_TYPE": 0}, "geometry": {"type": "Point", "coordinates": [6.064085376000037, 43.962895857000035]}}, {"type": "Feature", "properties": {"NUTS_ID": "FRM0", "LEVL_CODE": 2, "CNTR_CODE": "FR", "NAME_LATN": "Corse", "NUTS_NAME": "Corse", "MOUNT_TYPE": 0, "URBN_TYPE": 0, "COAST_TYPE": 0}, "geometry": {"type": "Point", "coordinates": [9.097577775000047, 42.12671945100004]}}, {"type": "Feature", "properties": {"NUTS_ID": "FRY1", "LEVL_CODE": 2, "CNTR_CODE": "FR", "NAME_LATN": "Guadeloupe", "NUTS_NAME": "Guadeloupe", "MOUNT_TYPE": 0, "URBN_TYPE": 0, "COAST_TYPE": 0}, "geometry": {"type": "Point", "coordinates": [-61.68770389499997, 16.177558417000057]}}, {"type": "Feature", "properties": {"NUTS_ID": "FRY2", "LEVL_CODE": 2, "CNTR_CODE": "FR", "NAME_LATN": "Martinique", "NUTS_NAME": "Martinique", "MOUNT_TYPE": 0, "URBN_TYPE": 0, "COAST_TYPE": 0}, "geometry": {"type": "Point", "coordinates": [-60.91486356299998, 14.565719418000072]}}, {"type": "Feature", "properties": {"NUTS_ID": "FRY3", "LEVL_CODE": 2, "CNTR_CODE": "FR", "NAME_LATN": "Guyane", "NUTS_NAME": "Guyane", "MOUNT_TYPE": 0, "URBN_TYPE": 0, "COAST_TYPE": 0}, "geometry": {"type": "Point", "coordinates": [-53.226286579999964, 3.922059035000075]}}, {"type": "Feature", "properties": {"NUTS_ID": "FRY4", "LEVL_CODE": 2, "CNTR_CODE": "FR", "NAME_LATN": "La Réunion", "NUTS_NAME": "La Réunion", "MOUNT_TYPE": 0, "URBN_TYPE": 0, "COAST_TYPE": 0}, "geometry": {"type": "Point", "coordinates": [55.53284517800006, -21.127068554999937]}}, {"type": "Feature", "properties": {"NUTS_ID": "FRY5", "LEVL_CODE": 2, "CNTR_CODE": "FR", "NAME_LATN": "Mayotte", "NUTS_NAME": "Mayotte", "MOUNT_TYPE": 0, "URBN_TYPE": 0, "COAST_TYPE": 0}, "geometry": {"type": "Point", "coordinates": [45.15460635000005, -12.829406658999972]}}, {"type": "Feature", "properties": {"NUTS_ID": "HR03", "LEVL_CODE": 2, "CNTR_CODE": "HR", "NAME_LATN": "Jadranska Hrvatska", "NUTS_NAME": "Jadranska Hrvatska", "MOUNT_TYPE": 0, "URBN_TYPE": 0, "COAST_TYPE": 0}, "geometry": {"type": "Point", "coordinates": [15.542369544000053, 44.428864917000055]}}, {"type": "Feature", "properties": {"NUTS_ID": "HR05", "LEVL_CODE": 2, "CNTR_CODE": "HR", "NAME_LATN": "Grad Zagreb", "NUTS_NAME": "Grad Zagreb", "MOUNT_TYPE": 0, "URBN_TYPE": 0, "COAST_TYPE": 0}, "geometry": {"type": "Point", "coordinates": [16.004758340000024, 45.83011774500005]}}, {"type": "Feature", "properties": {"NUTS_ID": "HU11", "LEVL_CODE": 2, "CNTR_CODE": "HU", "NAME_LATN": "Budapest", "NUTS_NAME": "Budapest", "MOUNT_TYPE": 0, "URBN_TYPE": 0, "COAST_TYPE": 0}, "geometry": {"type": "Point", "coordinates": [19.102347386000076, 47.48193416600003]}}, {"type": "Feature", "properties": {"NUTS_ID": "HU12", "LEVL_CODE": 2, "CNTR_CODE": "HU", "NAME_LATN": "Pest", "NUTS_NAME": "Pest", "MOUNT_TYPE": 0, "URBN_TYPE": 0, "COAST_TYPE": 0}, "geometry": {"type": "Point", "coordinates": [19.039996875000043, 47.199522228000035]}}, {"type": "Feature", "properties": {"NUTS_ID": "HU21", "LEVL_CODE": 2, "CNTR_CODE": "HU", "NAME_LATN": "Közép-Dunántúl", "NUTS_NAME": "Közép-Dunántúl", "MOUNT_TYPE": 0, "URBN_TYPE": 0, "COAST_TYPE": 0}, "geometry": {"type": "Point", "coordinates": [18.114810858000055, 47.229764457000044]}}, {"type": "Feature", "properties": {"NUTS_ID": "HU22", "LEVL_CODE": 2, "CNTR_CODE": "HU", "NAME_LATN": "Nyugat-Dunántúl", "NUTS_NAME": "Nyugat-Dunántúl", "MOUNT_TYPE": 0, "URBN_TYPE": 0, "COAST_TYPE": 0}, "geometry": {"type": "Point", "coordinates": [16.99178704800005, 47.189518433000046]}}, {"type": "Feature", "properties": {"NUTS_ID": "HU23", "LEVL_CODE": 2, "CNTR_CODE": "HU", "NAME_LATN": "Dél-Dunántúl", "NUTS_NAME": "Dél-Dunántúl", "MOUNT_TYPE": 0, "URBN_TYPE": 0, "COAST_TYPE": 0}, "geometry": {"type": "Point", "coordinates": [18.02114549600003, 46.34233274300004]}}, {"type": "Feature", "properties": {"NUTS_ID": "HU31", "LEVL_CODE": 2, "CNTR_CODE": "HU", "NAME_LATN": "Észak-Magyarország", "NUTS_NAME": "Észak-Magyarország", "MOUNT_TYPE": 0, "URBN_TYPE": 0, "COAST_TYPE": 0}, "geometry": {"type": "Point", "coordinates": [20.52473474900006, 47.99546957800004]}}, {"type": "Feature", "properties": {"NUTS_ID": "HU32", "LEVL_CODE": 2, "CNTR_CODE": "HU", "NAME_LATN": "Észak-Alföld", "NUTS_NAME": "Észak-Alföld", "MOUNT_TYPE": 0, "URBN_TYPE": 0, "COAST_TYPE": 0}, "geometry": {"type": "Point", "coordinates": [21.34240615500005, 47.581696581000074]}}, {"type": "Feature", "properties": {"NUTS_ID": "HU33", "LEVL_CODE": 2, "CNTR_CODE": "HU", "NAME_LATN": "Dél-Alföld", "NUTS_NAME": "Dél-Alföld", "MOUNT_TYPE": 0, "URBN_TYPE": 0, "COAST_TYPE": 0}, "geometry": {"type": "Point", "coordinates": [19.51645699900007, 46.58498284900003]}}, {"type": "Feature", "properties": {"NUTS_ID": "IE04", "LEVL_CODE": 2, "CNTR_CODE": "IE", "NAME_LATN": "Northern and Western", "NUTS_NAME": "Northern and Western", "MOUNT_TYPE": 0, "URBN_TYPE": 0, "COAST_TYPE": 0}, "geometry": {"type": "Point", "coordinates": [-8.357983477999937, 53.75123946100007]}}, {"type": "Feature", "properties": {"NUTS_ID": "IE05", "LEVL_CODE": 2, "CNTR_CODE": "IE", "NAME_LATN": "Southern", "NUTS_NAME": "Southern", "MOUNT_TYPE": 0, "URBN_TYPE": 0, "COAST_TYPE": 0}, "geometry": {"type": "Point", "coordinates": [-8.366692213999954, 52.36249479500003]}}, {"type": "Feature", "properties": {"NUTS_ID": "IE06", "LEVL_CODE": 2, "CNTR_CODE": "IE", "NAME_LATN": "Eastern and Midland", "NUTS_NAME": "Eastern and Midland", "MOUNT_TYPE": 0, "URBN_TYPE": 0, "COAST_TYPE": 0}, "geometry": {"type": "Point", "coordinates": [-7.015648866999925, 53.36221776000008]}}, {"type": "Feature", "properties": {"NUTS_ID": "IS00", "LEVL_CODE": 2, "CNTR_CODE": "IS", "NAME_LATN": "Ísland", "NUTS_NAME": "Ísland", "MOUNT_TYPE": 0, "URBN_TYPE": 0, "COAST_TYPE": 0}, "geometry": {"type": "Point", "coordinates": [-18.85686169099995, 64.75596913900006]}}, {"type": "Feature", "properties": {"NUTS_ID": "ITC1", "LEVL_CODE": 2, "CNTR_CODE": "IT", "NAME_LATN": "Piemonte", "NUTS_NAME": "Piemonte", "MOUNT_TYPE": 0, "URBN_TYPE": 0, "COAST_TYPE": 0}, "geometry": {"type": "Point", "coordinates": [7.918921486000045, 45.06335068100003]}}, {"type": "Feature", "properties": {"NUTS_ID": "ITC2", "LEVL_CODE": 2, "CNTR_CODE": "IT", "NAME_LATN": "Valle d’Aosta/Vallée d’Aoste", "NUTS_NAME": "Valle d’Aosta/Vallée d’Aoste", "MOUNT_TYPE": 0, "URBN_TYPE": 0, "COAST_TYPE": 0}, "geometry": {"type": "Point", "coordinates": [7.392457209000042, 45.72814855900003]}}, {"type": "Feature", "properties": {"NUTS_ID": "ITC3", "LEVL_CODE": 2, "CNTR_CODE": "IT", "NAME_LATN": "Liguria", "NUTS_NAME": "Liguria", "MOUNT_TYPE": 0, "URBN_TYPE": 0, "COAST_TYPE": 0}, "geometry": {"type": "Point", "coordinates": [8.152062625000042, 44.15732157100007]}}, {"type": "Feature", "properties": {"NUTS_ID": "ITC4", "LEVL_CODE": 2, "CNTR_CODE": "IT", "NAME_LATN": "Lombardia", "NUTS_NAME": "Lombardia", "MOUNT_TYPE": 0, "URBN_TYPE": 0, "COAST_TYPE": 0}, "geometry": {"type": "Point", "coordinates": [9.772972130000028, 45.61274935800003]}}, {"type": "Feature", "properties": {"NUTS_ID": "ITF1", "LEVL_CODE": 2, "CNTR_CODE": "IT", "NAME_LATN": "Abruzzo", "NUTS_NAME": "Abruzzo", "MOUNT_TYPE": 0, "URBN_TYPE": 0, "COAST_TYPE": 0}, "geometry": {"type": "Point", "coordinates": [13.871361998000054, 42.23413557200007]}}, {"type": "Feature", "properties": {"NUTS_ID": "ITF2", "LEVL_CODE": 2, "CNTR_CODE": "IT", "NAME_LATN": "Molise", "NUTS_NAME": "Molise", "MOUNT_TYPE": 0, "URBN_TYPE": 0, "COAST_TYPE": 0}, "geometry": {"type": "Point", "coordinates": [14.539608500000043, 41.59489034500007]}}, {"type": "Feature", "properties": {"NUTS_ID": "ITF3", "LEVL_CODE": 2, "CNTR_CODE": "IT", "NAME_LATN": "Campania", "NUTS_NAME": "Campania", "MOUNT_TYPE": 0, "URBN_TYPE": 0, "COAST_TYPE": 0}, "geometry": {"type": "Point", "coordinates": [14.737276115000043, 41.038690546000055]}}, {"type": "Feature", "properties": {"NUTS_ID": "ITF4", "LEVL_CODE": 2, "CNTR_CODE": "IT", "NAME_LATN": "Puglia", "NUTS_NAME": "Puglia", "MOUNT_TYPE": 0, "URBN_TYPE": 0, "COAST_TYPE": 0}, "geometry": {"type": "Point", "coordinates": [16.584672545000046, 41.004291555000066]}}, {"type": "Feature", "properties": {"NUTS_ID": "ITF5", "LEVL_CODE": 2, "CNTR_CODE": "IT", "NAME_LATN": "Basilicata", "NUTS_NAME": "Basilicata", "MOUNT_TYPE": 0, "URBN_TYPE": 0, "COAST_TYPE": 0}, "geometry": {"type": "Point", "coordinates": [16.07942415100007, 40.51569337600006]}}, {"type": "Feature", "properties": {"NUTS_ID": "ITF6", "LEVL_CODE": 2, "CNTR_CODE": "IT", "NAME_LATN": "Calabria", "NUTS_NAME": "Calabria", "MOUNT_TYPE": 0, "URBN_TYPE": 0, "COAST_TYPE": 0}, "geometry": {"type": "Point", "coordinates": [16.382188110000072, 39.16040872700006]}}, {"type": "Feature", "properties": {"NUTS_ID": "ITG1", "LEVL_CODE": 2, "CNTR_CODE": "IT", "NAME_LATN": "Sicilia", "NUTS_NAME": "Sicilia", "MOUNT_TYPE": 0, "URBN_TYPE": 0, "COAST_TYPE": 0}, "geometry": {"type": "Point", "coordinates": [14.165849184000024, 37.57044767100007]}}, {"type": "Feature", "properties": {"NUTS_ID": "ITG2", "LEVL_CODE": 2, "CNTR_CODE": "IT", "NAME_LATN": "Sardegna", "NUTS_NAME": "Sardegna", "MOUNT_TYPE": 0, "URBN_TYPE": 0, "COAST_TYPE": 0}, "geometry": {"type": "Point", "coordinates": [9.034772503000056, 40.07751749000005]}}, {"type": "Feature", "properties": {"NUTS_ID": "ITH1", "LEVL_CODE": 2, "CNTR_CODE": "IT", "NAME_LATN": "Provincia Autonoma di Bolzano/Bozen", "NUTS_NAME": "Provincia Autonoma di Bolzano/Bozen", "MOUNT_TYPE": 0, "URBN_TYPE": 0, "COAST_TYPE": 0}, "geometry": {"type": "Point", "coordinates": [11.424148487000025, 46.70527826700004]}}, {"type": "Feature", "properties": {"NUTS_ID": "ITH2", "LEVL_CODE": 2, "CNTR_CODE": "IT", "NAME_LATN": "Provincia Autonoma di Trento", "NUTS_NAME": "Provincia Autonoma di Trento", "MOUNT_TYPE": 0, "URBN_TYPE": 0, "COAST_TYPE": 0}, "geometry": {"type": "Point", "coordinates": [10.858987956000021, 46.13132783400005]}}, {"type": "Feature", "properties": {"NUTS_ID": "ITH3", "LEVL_CODE": 2, "CNTR_CODE": "IT", "NAME_LATN": "Veneto", "NUTS_NAME": "Veneto", "MOUNT_TYPE": 0, "URBN_TYPE": 0, "COAST_TYPE": 0}, "geometry": {"type": "Point", "coordinates": [11.85456406700007, 45.661041383000054]}}, {"type": "Feature", "properties": {"NUTS_ID": "ITH4", "LEVL_CODE": 2, "CNTR_CODE": "IT", "NAME_LATN": "Friuli-Venezia Giulia", "NUTS_NAME": "Friuli-Venezia Giulia", "MOUNT_TYPE": 0, "URBN_TYPE": 0, "COAST_TYPE": 0}, "geometry": {"type": "Point", "coordinates": [13.049532648000024, 46.16647855700006]}}, {"type": "Feature", "properties": {"NUTS_ID": "ITH5", "LEVL_CODE": 2, "CNTR_CODE": "IT", "NAME_LATN": "Emilia-Romagna", "NUTS_NAME": "Emilia-Romagna", "MOUNT_TYPE": 0, "URBN_TYPE": 0, "COAST_TYPE": 0}, "geometry": {"type": "Point", "coordinates": [11.02962466200006, 44.522416184000065]}}, {"type": "Feature", "properties": {"NUTS_ID": "ITI1", "LEVL_CODE": 2, "CNTR_CODE": "IT", "NAME_LATN": "Toscana", "NUTS_NAME": "Toscana", "MOUNT_TYPE": 0, "URBN_TYPE": 0, "COAST_TYPE": 0}, "geometry": {"type": "Point", "coordinates": [11.130621489000077, 43.479421511000055]}}, {"type": "Feature", "properties": {"NUTS_ID": "ITI2", "LEVL_CODE": 2, "CNTR_CODE": "IT", "NAME_LATN": "Umbria", "NUTS_NAME": "Umbria", "MOUNT_TYPE": 0, "URBN_TYPE": 0, "COAST_TYPE": 0}, "geometry": {"type": "Point", "coordinates": [12.489321762000031, 42.97167385500006]}}, {"type": "Feature", "properties": {"NUTS_ID": "ITI3", "LEVL_CODE": 2, "CNTR_CODE": "IT", "NAME_LATN": "Marche", "NUTS_NAME": "Marche", "MOUNT_TYPE": 0, "URBN_TYPE": 0, "COAST_TYPE": 0}, "geometry": {"type": "Point", "coordinates": [13.153043460000049, 43.34767948600006]}}, {"type": "Feature", "properties": {"NUTS_ID": "ITI4", "LEVL_CODE": 2, "CNTR_CODE": "IT", "NAME_LATN": "Lazio", "NUTS_NAME": "Lazio", "MOUNT_TYPE": 0, "URBN_TYPE": 0, "COAST_TYPE": 0}, "geometry": {"type": "Point", "coordinates": [12.750062075000073, 41.98984033800008]}}, {"type": "Feature", "properties": {"NUTS_ID": "LI00", "LEVL_CODE": 2, "CNTR_CODE": "LI", "NAME_LATN": "Liechtenstein", "NUTS_NAME": "Liechtenstein", "MOUNT_TYPE": 0, "URBN_TYPE": 0, "COAST_TYPE": 0}, "geometry": {"type": "Point", "coordinates": [9.553350187000035, 47.13833352000006]}}, {"type": "Feature", "properties": {"NUTS_ID": "LT01", "LEVL_CODE": 2, "CNTR_CODE": "LT", "NAME_LATN": "Sostinės regionas", "NUTS_NAME": "Sostinės regionas", "MOUNT_TYPE": 0, "URBN_TYPE": 0, "COAST_TYPE": 0}, "geometry": {"type": "Point", "coordinates": [25.228935990000025, 54.81663706900008]}}, {"type": "Feature", "properties": {"NUTS_ID": "LT02", "LEVL_CODE": 2, "CNTR_CODE": "LT", "NAME_LATN": "Vidurio ir vakarų Lietuvos regionas", "NUTS_NAME": "Vidurio ir vakarų Lietuvos regionas", "MOUNT_TYPE": 0, "URBN_TYPE": 0, "COAST_TYPE": 0}, "geometry": {"type": "Point", "coordinates": [23.662064617000055, 55.43141470100005]}}, {"type": "Feature", "properties": {"NUTS_ID": "LU00", "LEVL_CODE": 2, "CNTR_CODE": "LU", "NAME_LATN": "Luxembourg", "NUTS_NAME": "Luxembourg", "MOUNT_TYPE": 0, "URBN_TYPE": 0, "COAST_TYPE": 0}, "geometry": {"type": "Point", "coordinates": [6.094280149000042, 49.77104423600008]}}, {"type": "Feature", "properties": {"NUTS_ID": "LV00", "LEVL_CODE": 2, "CNTR_CODE": "LV", "NAME_LATN": "Latvija", "NUTS_NAME": "Latvija", "MOUNT_TYPE": 0, "URBN_TYPE": 0, "COAST_TYPE": 0}, "geometry": {"type": "Point", "coordinates": [26.38197612500005, 56.68294994000007]}}, {"type": "Feature", "properties": {"NUTS_ID": "ME00", "LEVL_CODE": 2, "CNTR_CODE": "ME", "NAME_LATN": "Crna Gora", "NUTS_NAME": "Црна Гора", "MOUNT_TYPE": 0, "URBN_TYPE": 0, "COAST_TYPE": 0}, "geometry": {"type": "Point", "coordinates": [19.268966068000054, 42.77213980600004]}}, {"type": "Feature", "properties": {"NUTS_ID": "MK00", "LEVL_CODE": 2, "CNTR_CODE": "MK", "NAME_LATN": "Severna Makedonija", "NUTS_NAME": "Северна Македонија", "MOUNT_TYPE": 0, "URBN_TYPE": 0, "COAST_TYPE": 0}, "geometry": {"type": "Point", "coordinates": [21.696609463000073, 41.59812201200003]}}, {"type": "Feature", "properties": {"NUTS_ID": "MT00", "LEVL_CODE": 2, "CNTR_CODE": "MT", "NAME_LATN": "Malta", "NUTS_NAME": "Malta", "MOUNT_TYPE": 0, "URBN_TYPE": 0, "COAST_TYPE": 0}, "geometry": {"type": "Point", "coordinates": [14.43119451900003, 35.88603830200003]}}, {"type": "Feature", "properties": {"NUTS_ID": "NL11", "LEVL_CODE": 2, "CNTR_CODE": "NL", "NAME_LATN": "Groningen", "NUTS_NAME": "Groningen", "MOUNT_TYPE": 0, "URBN_TYPE": 0, "COAST_TYPE": 0}, "geometry": {"type": "Point", "coordinates": [6.692876001000059, 53.26753188300006]}}, {"type": "Feature", "properties": {"NUTS_ID": "NL12", "LEVL_CODE": 2, "CNTR_CODE": "NL", "NAME_LATN": "Friesland (NL)", "NUTS_NAME": "Friesland (NL)", "MOUNT_TYPE": 0, "URBN_TYPE": 0, "COAST_TYPE": 0}, "geometry": {"type": "Point", "coordinates": [5.800173921000066, 53.06491052200005]}}, {"type": "Feature", "properties": {"NUTS_ID": "NL13", "LEVL_CODE": 2, "CNTR_CODE": "NL", "NAME_LATN": "Drenthe", "NUTS_NAME": "Drenthe", "MOUNT_TYPE": 0, "URBN_TYPE": 0, "COAST_TYPE": 0}, "geometry": {"type": "Point", "coordinates": [6.629195742000036, 52.863813064000055]}}, {"type": "Feature", "properties": {"NUTS_ID": "NL21", "LEVL_CODE": 2, "CNTR_CODE": "NL", "NAME_LATN": "Overijssel", "NUTS_NAME": "Overijssel", "MOUNT_TYPE": 0, "URBN_TYPE": 0, "COAST_TYPE": 0}, "geometry": {"type": "Point", "coordinates": [6.439660238000045, 52.44520297400004]}}, {"type": "Feature", "properties": {"NUTS_ID": "NL22", "LEVL_CODE": 2, "CNTR_CODE": "NL", "NAME_LATN": "Gelderland", "NUTS_NAME": "Gelderland", "MOUNT_TYPE": 0, "URBN_TYPE": 0, "COAST_TYPE": 0}, "geometry": {"type": "Point", "coordinates": [5.937824982000052, 52.06721781600004]}}, {"type": "Feature", "properties": {"NUTS_ID": "NL23", "LEVL_CODE": 2, "CNTR_CODE": "NL", "NAME_LATN": "Flevoland", "NUTS_NAME": "Flevoland", "MOUNT_TYPE": 0, "URBN_TYPE": 0, "COAST_TYPE": 0}, "geometry": {"type": "Point", "coordinates": [5.481712739000045, 52.543755074000046]}}, {"type": "Feature", "properties": {"NUTS_ID": "NL31", "LEVL_CODE": 2, "CNTR_CODE": "NL", "NAME_LATN": "Utrecht", "NUTS_NAME": "Utrecht", "MOUNT_TYPE": 0, "URBN_TYPE": 0, "COAST_TYPE": 0}, "geometry": {"type": "Point", "coordinates": [5.200267749000034, 52.074861620000036]}}, {"type": "Feature", "properties": {"NUTS_ID": "NL32", "LEVL_CODE": 2, "CNTR_CODE": "NL", "NAME_LATN": "Noord-Holland", "NUTS_NAME": "Noord-Holland", "MOUNT_TYPE": 0, "URBN_TYPE": 0, "COAST_TYPE": 0}, "geometry": {"type": "Point", "coordinates": [4.91228325700007, 52.59453409200006]}}, {"type": "Feature", "properties": {"NUTS_ID": "NL33", "LEVL_CODE": 2, "CNTR_CODE": "NL", "NAME_LATN": "Zuid-Holland", "NUTS_NAME": "Zuid-Holland", "MOUNT_TYPE": 0, "URBN_TYPE": 0, "COAST_TYPE": 0}, "geometry": {"type": "Point", "coordinates": [4.48669019600004, 51.938836294000055]}}, {"type": "Feature", "properties": {"NUTS_ID": "NL34", "LEVL_CODE": 2, "CNTR_CODE": "NL", "NAME_LATN": "Zeeland", "NUTS_NAME": "Zeeland", "MOUNT_TYPE": 0, "URBN_TYPE": 0, "COAST_TYPE": 0}, "geometry": {"type": "Point", "coordinates": [3.788289805000034, 51.307267868000054]}}, {"type": "Feature", "properties": {"NUTS_ID": "NL41", "LEVL_CODE": 2, "CNTR_CODE": "NL", "NAME_LATN": "Noord-Brabant", "NUTS_NAME": "Noord-Brabant", "MOUNT_TYPE": 0, "URBN_TYPE": 0, "COAST_TYPE": 0}, "geometry": {"type": "Point", "coordinates": [5.459502751000059, 51.54607249500003]}}, {"type": "Feature", "properties": {"NUTS_ID": "NL42", "LEVL_CODE": 2, "CNTR_CODE": "NL", "NAME_LATN": "Limburg (NL)", "NUTS_NAME": "Limburg (NL)", "MOUNT_TYPE": 0, "URBN_TYPE": 0, "COAST_TYPE": 0}, "geometry": {"type": "Point", "coordinates": [5.929205803000059, 51.18539883900007]}}, {"type": "Feature", "properties": {"NUTS_ID": "PL21", "LEVL_CODE": 2, "CNTR_CODE": "PL", "NAME_LATN": "Małopolskie", "NUTS_NAME": "Małopolskie", "MOUNT_TYPE": 0, "URBN_TYPE": 0, "COAST_TYPE": 0}, "geometry": {"type": "Point", "coordinates": [20.269036518000064, 49.85341196500008]}}, {"type": "Feature", "properties": {"NUTS_ID": "PL22", "LEVL_CODE": 2, "CNTR_CODE": "PL", "NAME_LATN": "Śląskie", "NUTS_NAME": "Śląskie", "MOUNT_TYPE": 0, "URBN_TYPE": 0, "COAST_TYPE": 0}, "geometry": {"type": "Point", "coordinates": [19.009794355000054, 50.33381626600004]}}, {"type": "Feature", "properties": {"NUTS_ID": "PL41", "LEVL_CODE": 2, "CNTR_CODE": "PL", "NAME_LATN": "Wielkopolskie", "NUTS_NAME": "Wielkopolskie", "MOUNT_TYPE": 0, "URBN_TYPE": 0, "COAST_TYPE": 0}, "geometry": {"type": "Point", "coordinates": [16.672387875000027, 52.49767402900005]}}, {"type": "Feature", "properties": {"NUTS_ID": "PL42", "LEVL_CODE": 2, "CNTR_CODE": "PL", "NAME_LATN": "Zachodniopomorskie", "NUTS_NAME": "Zachodniopomorskie", "MOUNT_TYPE": 0, "URBN_TYPE": 0, "COAST_TYPE": 0}, "geometry": {"type": "Point", "coordinates": [15.571512154000061, 53.569355216000076]}}, {"type": "Feature", "properties": {"NUTS_ID": "PL43", "LEVL_CODE": 2, "CNTR_CODE": "PL", "NAME_LATN": "Lubuskie", "NUTS_NAME": "Lubuskie", "MOUNT_TYPE": 0, "URBN_TYPE": 0, "COAST_TYPE": 0}, "geometry": {"type": "Point", "coordinates": [15.33391104900005, 52.17037792700006]}}, {"type": "Feature", "properties": {"NUTS_ID": "PL51", "LEVL_CODE": 2, "CNTR_CODE": "PL", "NAME_LATN": "Dolnośląskie", "NUTS_NAME": "Dolnośląskie", "MOUNT_TYPE": 0, "URBN_TYPE": 0, "COAST_TYPE": 0}, "geometry": {"type": "Point", "coordinates": [16.411737075000076, 51.09816919900004]}}, {"type": "Feature", "properties": {"NUTS_ID": "PL52", "LEVL_CODE": 2, "CNTR_CODE": "PL", "NAME_LATN": "Opolskie", "NUTS_NAME": "Opolskie", "MOUNT_TYPE": 0, "URBN_TYPE": 0, "COAST_TYPE": 0}, "geometry": {"type": "Point", "coordinates": [17.91452872600007, 50.65480089500005]}}, {"type": "Feature", "properties": {"NUTS_ID": "PL61", "LEVL_CODE": 2, "CNTR_CODE": "PL", "NAME_LATN": "Kujawsko-pomorskie", "NUTS_NAME": "Kujawsko-pomorskie", "MOUNT_TYPE": 0, "URBN_TYPE": 0, "COAST_TYPE": 0}, "geometry": {"type": "Point", "coordinates": [18.507668513000056, 53.080000021000046]}}, {"type": "Feature", "properties": {"NUTS_ID": "PL62", "LEVL_CODE": 2, "CNTR_CODE": "PL", "NAME_LATN": "Warmińsko-mazurskie", "NUTS_NAME": "Warmińsko-mazurskie", "MOUNT_TYPE": 0, "URBN_TYPE": 0, "COAST_TYPE": 0}, "geometry": {"type": "Point", "coordinates": [20.830097, 53.86107181500006]}}, {"type": "Feature", "properties": {"NUTS_ID": "PL63", "LEVL_CODE": 2, "CNTR_CODE": "PL", "NAME_LATN": "Pomorskie", "NUTS_NAME": "Pomorskie", "MOUNT_TYPE": 0, "URBN_TYPE": 0, "COAST_TYPE": 0}, "geometry": {"type": "Point", "coordinates": [18.065506301000028, 54.28861445300004]}}, {"type": "Feature", "properties": {"NUTS_ID": "PL71", "LEVL_CODE": 2, "CNTR_CODE": "PL", "NAME_LATN": "Łódzkie", "NUTS_NAME": "Łódzkie", "MOUNT_TYPE": 0, "URBN_TYPE": 0, "COAST_TYPE": 0}, "geometry": {"type": "Point", "coordinates": [19.407898413000055, 51.60871221200006]}}, {"type": "Feature", "properties": {"NUTS_ID": "PL72", "LEVL_CODE": 2, "CNTR_CODE": "PL", "NAME_LATN": "Świętokrzyskie", "NUTS_NAME": "Świętokrzyskie", "MOUNT_TYPE": 0, "URBN_TYPE": 0, "COAST_TYPE": 0}, "geometry": {"type": "Point", "coordinates": [20.786544451000054, 50.76666327500004]}}, {"type": "Feature", "properties": {"NUTS_ID": "PL81", "LEVL_CODE": 2, "CNTR_CODE": "PL", "NAME_LATN": "Lubelskie", "NUTS_NAME": "Lubelskie", "MOUNT_TYPE": 0, "URBN_TYPE": 0, "COAST_TYPE": 0}, "geometry": {"type": "Point", "coordinates": [22.887975382000036, 51.22947975000005]}}, {"type": "Feature", "properties": {"NUTS_ID": "PL82", "LEVL_CODE": 2, "CNTR_CODE": "PL", "NAME_LATN": "Podkarpackie", "NUTS_NAME": "Podkarpackie", "MOUNT_TYPE": 0, "URBN_TYPE": 0, "COAST_TYPE": 0}, "geometry": {"type": "Point", "coordinates": [22.155411352000044, 49.96377589000008]}}, {"type": "Feature", "properties": {"NUTS_ID": "PL84", "LEVL_CODE": 2, "CNTR_CODE": "PL", "NAME_LATN": "Podlaskie", "NUTS_NAME": "Podlaskie", "MOUNT_TYPE": 0, "URBN_TYPE": 0, "COAST_TYPE": 0}, "geometry": {"type": "Point", "coordinates": [22.944621992000066, 53.266901723000046]}}, {"type": "Feature", "properties": {"NUTS_ID": "PL91", "LEVL_CODE": 2, "CNTR_CODE": "PL", "NAME_LATN": "Warszawski stołeczny", "NUTS_NAME": "Warszawski stołeczny", "MOUNT_TYPE": 0, "URBN_TYPE": 0, "COAST_TYPE": 0}, "geometry": {"type": "Point", "coordinates": [21.13865266700003, 52.23281745400004]}}, {"type": "Feature", "properties": {"NUTS_ID": "PL92", "LEVL_CODE": 2, "CNTR_CODE": "PL", "NAME_LATN": "Mazowiecki regionalny", "NUTS_NAME": "Mazowiecki regionalny", "MOUNT_TYPE": 0, "URBN_TYPE": 0, "COAST_TYPE": 0}, "geometry": {"type": "Point", "coordinates": [21.208796750000033, 51.528517650000026]}}, {"type": "Feature", "properties": {"NUTS_ID": "PT11", "LEVL_CODE": 2, "CNTR_CODE": "PT", "NAME_LATN": "Norte", "NUTS_NAME": "Norte", "MOUNT_TYPE": 0, "URBN_TYPE": 0, "COAST_TYPE": 0}, "geometry": {"type": "Point", "coordinates": [-7.693277694999949, 41.453145171000074]}}, {"type": "Feature", "properties": {"NUTS_ID": "PT15", "LEVL_CODE": 2, "CNTR_CODE": "PT", "NAME_LATN": "Algarve", "NUTS_NAME": "Algarve", "MOUNT_TYPE": 0, "URBN_TYPE": 0, "COAST_TYPE": 0}, "geometry": {"type": "Point", "coordinates": [-8.129923711999936, 37.202560009000024]}}, {"type": "Feature", "properties": {"NUTS_ID": "PT16", "LEVL_CODE": 2, "CNTR_CODE": "PT", "NAME_LATN": "Centro (PT)", "NUTS_NAME": "Centro (PT)", "MOUNT_TYPE": 0, "URBN_TYPE": 0, "COAST_TYPE": 0}, "geometry": {"type": "Point", "coordinates": [-7.994613862999927, 40.14250407000003]}}, {"type": "Feature", "properties": {"NUTS_ID": "PT17", "LEVL_CODE": 2, "CNTR_CODE": "PT", "NAME_LATN": "Área Metropolitana de Lisboa", "NUTS_NAME": "Área Metropolitana de Lisboa", "MOUNT_TYPE": 0, "URBN_TYPE": 0, "COAST_TYPE": 0}, "geometry": {"type": "Point", "coordinates": [-8.887815933999946, 38.62208515200007]}}, {"type": "Feature", "properties": {"NUTS_ID": "PT18", "LEVL_CODE": 2, "CNTR_CODE": "PT", "NAME_LATN": "Alentejo", "NUTS_NAME": "Alentejo", "MOUNT_TYPE": 0, "URBN_TYPE": 0, "COAST_TYPE": 0}, "geometry": {"type": "Point", "coordinates": [-8.001672823999968, 38.47925576100005]}}, {"type": "Feature", "properties": {"NUTS_ID": "PT20", "LEVL_CODE": 2, "CNTR_CODE": "PT", "NAME_LATN": "Região Autónoma dos Açores", "NUTS_NAME": "Região Autónoma dos Açores", "MOUNT_TYPE": 0, "URBN_TYPE": 0, "COAST_TYPE": 0}, "geometry": {"type": "Point", "coordinates": [-25.365939888999947, 37.78463074200005]}}, {"type": "Feature", "properties": {"NUTS_ID": "PT30", "LEVL_CODE": 2, "CNTR_CODE": "PT", "NAME_LATN": "Região Autónoma da Madeira", "NUTS_NAME": "Região Autónoma da Madeira", "MOUNT_TYPE": 0, "URBN_TYPE": 0, "COAST_TYPE": 0}, "geometry": {"type": "Point", "coordinates": [-16.950252641999953, 32.73261324200007]}}, {"type": "Feature", "properties": {"NUTS_ID": "RO11", "LEVL_CODE": 2, "CNTR_CODE": "RO", "NAME_LATN": "Nord-Vest", "NUTS_NAME": "Nord-Vest", "MOUNT_TYPE": 0, "URBN_TYPE": 0, "COAST_TYPE": 0}, "geometry": {"type": "Point", "coordinates": [23.345818972000075, 47.224988246000066]}}, {"type": "Feature", "properties": {"NUTS_ID": "RO12", "LEVL_CODE": 2, "CNTR_CODE": "RO", "NAME_LATN": "Centru", "NUTS_NAME": "Centru", "MOUNT_TYPE": 0, "URBN_TYPE": 0, "COAST_TYPE": 0}, "geometry": {"type": "Point", "coordinates": [24.811414650000074, 46.18602211600006]}}, {"type": "Feature", "properties": {"NUTS_ID": "RO21", "LEVL_CODE": 2, "CNTR_CODE": "RO", "NAME_LATN": "Nord-Est", "NUTS_NAME": "Nord-Est", "MOUNT_TYPE": 0, "URBN_TYPE": 0, "COAST_TYPE": 0}, "geometry": {"type": "Point", "coordinates": [26.694691343000045, 47.08926339300007]}}, {"type": "Feature", "properties": {"NUTS_ID": "RO22", "LEVL_CODE": 2, "CNTR_CODE": "RO", "NAME_LATN": "Sud-Est", "NUTS_NAME": "Sud-Est", "MOUNT_TYPE": 0, "URBN_TYPE": 0, "COAST_TYPE": 0}, "geometry": {"type": "Point", "coordinates": [26.974448749000032, 45.45305770900006]}}, {"type": "Feature", "properties": {"NUTS_ID": "RO31", "LEVL_CODE": 2, "CNTR_CODE": "RO", "NAME_LATN": "Sud-Muntenia", "NUTS_NAME": "Sud-Muntenia", "MOUNT_TYPE": 0, "URBN_TYPE": 0, "COAST_TYPE": 0}, "geometry": {"type": "Point", "coordinates": [25.349201292000032, 44.51923544200008]}}, {"type": "Feature", "properties": {"NUTS_ID": "RO32", "LEVL_CODE": 2, "CNTR_CODE": "RO", "NAME_LATN": "Bucureşti-Ilfov", "NUTS_NAME": "Bucureşti-Ilfov", "MOUNT_TYPE": 0, "URBN_TYPE": 0, "COAST_TYPE": 0}, "geometry": {"type": "Point", "coordinates": [26.14397028600007, 44.51389945000005]}}, {"type": "Feature", "properties": {"NUTS_ID": "RO41", "LEVL_CODE": 2, "CNTR_CODE": "RO", "NAME_LATN": "Sud-Vest Oltenia", "NUTS_NAME": "Sud-Vest Oltenia", "MOUNT_TYPE": 0, "URBN_TYPE": 0, "COAST_TYPE": 0}, "geometry": {"type": "Point", "coordinates": [23.685937094000053, 44.59963928500008]}}, {"type": "Feature", "properties": {"NUTS_ID": "RO42", "LEVL_CODE": 2, "CNTR_CODE": "RO", "NAME_LATN": "Vest", "NUTS_NAME": "Vest", "MOUNT_TYPE": 0, "URBN_TYPE": 0, "COAST_TYPE": 0}, "geometry": {"type": "Point", "coordinates": [21.98757431000007, 45.71327865600006]}}, {"type": "Feature", "properties": {"NUTS_ID": "RS11", "LEVL_CODE": 2, "CNTR_CODE": "RS", "NAME_LATN": "City of Belgrade", "NUTS_NAME": "Београдски регион", "MOUNT_TYPE": 0, "URBN_TYPE": 0, "COAST_TYPE": 0}, "geometry": {"type": "Point", "coordinates": [20.42702758200005, 44.65932294000004]}}, {"type": "Feature", "properties": {"NUTS_ID": "RS12", "LEVL_CODE": 2, "CNTR_CODE": "RS", "NAME_LATN": "Autonomous Province of Vojvodina", "NUTS_NAME": "Регион Војводине", "MOUNT_TYPE": 0, "URBN_TYPE": 0, "COAST_TYPE": 0}, "geometry": {"type": "Point", "coordinates": [20.082150327000022, 45.40713725200004]}}, {"type": "Feature", "properties": {"NUTS_ID": "RS21", "LEVL_CODE": 2, "CNTR_CODE": "RS", "NAME_LATN": "Region Šumadije i Zapadne Srbije", "NUTS_NAME": "Регион Шумадије и Западне Србије", "MOUNT_TYPE": 0, "URBN_TYPE": 0, "COAST_TYPE": 0}, "geometry": {"type": "Point", "coordinates": [20.33869723500004, 43.85425911600004]}}, {"type": "Feature", "properties": {"NUTS_ID": "RS22", "LEVL_CODE": 2, "CNTR_CODE": "RS", "NAME_LATN": "Region Južne i Istočne Srbije", "NUTS_NAME": "Регион Јужне и Источне Србије", "MOUNT_TYPE": 0, "URBN_TYPE": 0, "COAST_TYPE": 0}, "geometry": {"type": "Point", "coordinates": [21.926814514000057, 43.57839330100006]}}, {"type": "Feature", "properties": {"NUTS_ID": "SE11", "LEVL_CODE": 2, "CNTR_CODE": "SE", "NAME_LATN": "Stockholm", "NUTS_NAME": "Stockholm", "MOUNT_TYPE": 0, "URBN_TYPE": 0, "COAST_TYPE": 0}, "geometry": {"type": "Point", "coordinates": [17.743536409000058, 59.35147587300003]}}, {"type": "Feature", "properties": {"NUTS_ID": "SE12", "LEVL_CODE": 2, "CNTR_CODE": "SE", "NAME_LATN": "Östra Mellansverige", "NUTS_NAME": "Östra Mellansverige", "MOUNT_TYPE": 0, "URBN_TYPE": 0, "COAST_TYPE": 0}, "geometry": {"type": "Point", "coordinates": [16.114913727000044, 59.22744038600007]}}, {"type": "Feature", "properties": {"NUTS_ID": "SE21", "LEVL_CODE": 2, "CNTR_CODE": "SE", "NAME_LATN": "Småland med öarna", "NUTS_NAME": "Småland med öarna", "MOUNT_TYPE": 0, "URBN_TYPE": 0, "COAST_TYPE": 0}, "geometry": {"type": "Point", "coordinates": [14.991298718000053, 57.21329670300008]}}, {"type": "Feature", "properties": {"NUTS_ID": "SE22", "LEVL_CODE": 2, "CNTR_CODE": "SE", "NAME_LATN": "Sydsverige", "NUTS_NAME": "Sydsverige", "MOUNT_TYPE": 0, "URBN_TYPE": 0, "COAST_TYPE": 0}, "geometry": {"type": "Point", "coordinates": [13.524695455000028, 55.91134546300003]}}, {"type": "Feature", "properties": {"NUTS_ID": "SE23", "LEVL_CODE": 2, "CNTR_CODE": "SE", "NAME_LATN": "Västsverige", "NUTS_NAME": "Västsverige", "MOUNT_TYPE": 0, "URBN_TYPE": 0, "COAST_TYPE": 0}, "geometry": {"type": "Point", "coordinates": [12.871981366000057, 58.11093745000005]}}, {"type": "Feature", "properties": {"NUTS_ID": "SE31", "LEVL_CODE": 2, "CNTR_CODE": "SE", "NAME_LATN": "Norra Mellansverige", "NUTS_NAME": "Norra Mellansverige", "MOUNT_TYPE": 0, "URBN_TYPE": 0, "COAST_TYPE": 0}, "geometry": {"type": "Point", "coordinates": [14.548098053000047, 60.746816608000074]}}, {"type": "Feature", "properties": {"NUTS_ID": "SE32", "LEVL_CODE": 2, "CNTR_CODE": "SE", "NAME_LATN": "Mellersta Norrland", "NUTS_NAME": "Mellersta Norrland", "MOUNT_TYPE": 0, "URBN_TYPE": 0, "COAST_TYPE": 0}, "geometry": {"type": "Point", "coordinates": [15.17670558900005, 63.21499649400005]}}, {"type": "Feature", "properties": {"NUTS_ID": "SE33", "LEVL_CODE": 2, "CNTR_CODE": "SE", "NAME_LATN": "Övre Norrland", "NUTS_NAME": "Övre Norrland", "MOUNT_TYPE": 0, "URBN_TYPE": 0, "COAST_TYPE": 0}, "geometry": {"type": "Point", "coordinates": [19.290635612000074, 66.24110717600007]}}, {"type": "Feature", "properties": {"NUTS_ID": "SI03", "LEVL_CODE": 2, "CNTR_CODE": "SI", "NAME_LATN": "Vzhodna Slovenija", "NUTS_NAME": "Vzhodna Slovenija", "MOUNT_TYPE": 0, "URBN_TYPE": 0, "COAST_TYPE": 0}, "geometry": {"type": "Point", "coordinates": [15.275381332000052, 46.172412706000046]}}, {"type": "Feature", "properties": {"NUTS_ID": "SI04", "LEVL_CODE": 2, "CNTR_CODE": "SI", "NAME_LATN": "Zahodna Slovenija", "NUTS_NAME": "Zahodna Slovenija", "MOUNT_TYPE": 0, "URBN_TYPE": 0, "COAST_TYPE": 0}, "geometry": {"type": "Point", "coordinates": [14.222757, 46.15317471000003]}}, {"type": "Feature", "properties": {"NUTS_ID": "SK01", "LEVL_CODE": 2, "CNTR_CODE": "SK", "NAME_LATN": "Bratislavský kraj", "NUTS_NAME": "Bratislavský kraj", "MOUNT_TYPE": 0, "URBN_TYPE": 0, "COAST_TYPE": 0}, "geometry": {"type": "Point", "coordinates": [17.16073797100006, 48.29976134800006]}}, {"type": "Feature", "properties": {"NUTS_ID": "SK02", "LEVL_CODE": 2, "CNTR_CODE": "SK", "NAME_LATN": "Západné Slovensko", "NUTS_NAME": "Západné Slovensko", "MOUNT_TYPE": 0, "URBN_TYPE": 0, "COAST_TYPE": 0}, "geometry": {"type": "Point", "coordinates": [18.070102012000063, 48.405693678000034]}}, {"type": "Feature", "properties": {"NUTS_ID": "SK03", "LEVL_CODE": 2, "CNTR_CODE": "SK", "NAME_LATN": "Stredné Slovensko", "NUTS_NAME": "Stredné Slovensko", "MOUNT_TYPE": 0, "URBN_TYPE": 0, "COAST_TYPE": 0}, "geometry": {"type": "Point", "coordinates": [19.364705909000065, 48.79601907400007]}}, {"type": "Feature", "properties": {"NUTS_ID": "SK04", "LEVL_CODE": 2, "CNTR_CODE": "SK", "NAME_LATN": "Východné Slovensko", "NUTS_NAME": "Východné Slovensko", "MOUNT_TYPE": 0, "URBN_TYPE": 0, "COAST_TYPE": 0}, "geometry": {"type": "Point", "coordinates": [21.252663992000066, 48.94464119500003]}}, {"type": "Feature", "properties": {"NUTS_ID": "TR10", "LEVL_CODE": 2, "CNTR_CODE": "TR", "NAME_LATN": "İstanbul", "NUTS_NAME": "İstanbul", "MOUNT_TYPE": 0, "URBN_TYPE": 0, "COAST_TYPE": 0}, "geometry": {"type": "Point", "coordinates": [28.43720434000005, 41.21863598700003]}}, {"type": "Feature", "properties": {"NUTS_ID": "TR21", "LEVL_CODE": 2, "CNTR_CODE": "TR", "NAME_LATN": "Tekirdağ, Edirne, Kırklareli", "NUTS_NAME": "Tekirdağ, Edirne, Kırklareli", "MOUNT_TYPE": 0, "URBN_TYPE": 0, "COAST_TYPE": 0}, "geometry": {"type": "Point", "coordinates": [27.177105261000065, 41.36382103300008]}}, {"type": "Feature", "properties": {"NUTS_ID": "TR22", "LEVL_CODE": 2, "CNTR_CODE": "TR", "NAME_LATN": "Balıkesir, Çanakkale", "NUTS_NAME": "Balıkesir, Çanakkale", "MOUNT_TYPE": 0, "URBN_TYPE": 0, "COAST_TYPE": 0}, "geometry": {"type": "Point", "coordinates": [27.555234993000056, 39.82949937400008]}}, {"type": "Feature", "properties": {"NUTS_ID": "TR31", "LEVL_CODE": 2, "CNTR_CODE": "TR", "NAME_LATN": "İzmir", "NUTS_NAME": "İzmir", "MOUNT_TYPE": 0, "URBN_TYPE": 0, "COAST_TYPE": 0}, "geometry": {"type": "Point", "coordinates": [27.450717439000073, 38.22263188800008]}}, {"type": "Feature", "properties": {"NUTS_ID": "TR32", "LEVL_CODE": 2, "CNTR_CODE": "TR", "NAME_LATN": "Aydın, Denizli, Muğla", "NUTS_NAME": "Aydın, Denizli, Muğla", "MOUNT_TYPE": 0, "URBN_TYPE": 0, "COAST_TYPE": 0}, "geometry": {"type": "Point", "coordinates": [28.668607310000027, 37.48615924100005]}}, {"type": "Feature", "properties": {"NUTS_ID": "TR33", "LEVL_CODE": 2, "CNTR_CODE": "TR", "NAME_LATN": "Manisa, Afyonkarahisar, Kütahya, Uşak", "NUTS_NAME": "Manisa, Afyonkarahisar, Kütahya, Uşak", "MOUNT_TYPE": 0, "URBN_TYPE": 0, "COAST_TYPE": 0}, "geometry": {"type": "Point", "coordinates": [29.392099899000073, 39.027141191000055]}}, {"type": "Feature", "properties": {"NUTS_ID": "TR41", "LEVL_CODE": 2, "CNTR_CODE": "TR", "NAME_LATN": "Bursa, Eskişehir, Bilecik", "NUTS_NAME": "Bursa, Eskişehir, Bilecik", "MOUNT_TYPE": 0, "URBN_TYPE": 0, "COAST_TYPE": 0}, "geometry": {"type": "Point", "coordinates": [30.070502911000062, 40.032199812000044]}}, {"type": "Feature", "properties": {"NUTS_ID": "TR42", "LEVL_CODE": 2, "CNTR_CODE": "TR", "NAME_LATN": "Kocaeli, Sakarya, Düzce, Bolu, Yalova", "NUTS_NAME": "Kocaeli, Sakarya, Düzce, Bolu, Yalova", "MOUNT_TYPE": 0, "URBN_TYPE": 0, "COAST_TYPE": 0}, "geometry": {"type": "Point", "coordinates": [30.925729911000076, 40.71221947400005]}}, {"type": "Feature", "properties": {"NUTS_ID": "TR51", "LEVL_CODE": 2, "CNTR_CODE": "TR", "NAME_LATN": "Ankara", "NUTS_NAME": "Ankara", "MOUNT_TYPE": 0, "URBN_TYPE": 0, "COAST_TYPE": 0}, "geometry": {"type": "Point", "coordinates": [32.59520134700006, 39.79274444200007]}}, {"type": "Feature", "properties": {"NUTS_ID": "TR52", "LEVL_CODE": 2, "CNTR_CODE": "TR", "NAME_LATN": "Konya, Karaman", "NUTS_NAME": "Konya, Karaman", "MOUNT_TYPE": 0, "URBN_TYPE": 0, "COAST_TYPE": 0}, "geometry": {"type": "Point", "coordinates": [32.70780837600006, 37.85302219700003]}}, {"type": "Feature", "properties": {"NUTS_ID": "TR61", "LEVL_CODE": 2, "CNTR_CODE": "TR", "NAME_LATN": "Antalya, Isparta, Burdur", "NUTS_NAME": "Antalya, Isparta, Burdur", "MOUNT_TYPE": 0, "URBN_TYPE": 0, "COAST_TYPE": 0}, "geometry": {"type": "Point", "coordinates": [30.918450750000034, 37.60708721700007]}}, {"type": "Feature", "properties": {"NUTS_ID": "TR62", "LEVL_CODE": 2, "CNTR_CODE": "TR", "NAME_LATN": "Adana, Mersin", "NUTS_NAME": "Adana, Mersin", "MOUNT_TYPE": 0, "URBN_TYPE": 0, "COAST_TYPE": 0}, "geometry": {"type": "Point", "coordinates": [35.47367875000003, 37.163221272000044]}}, {"type": "Feature", "properties": {"NUTS_ID": "TR63", "LEVL_CODE": 2, "CNTR_CODE": "TR", "NAME_LATN": "Hatay, Kahramanmaraş, Osmaniye", "NUTS_NAME": "Hatay, Kahramanmaraş, Osmaniye", "MOUNT_TYPE": 0, "URBN_TYPE": 0, "COAST_TYPE": 0}, "geometry": {"type": "Point", "coordinates": [36.77070092400004, 37.89930668000005]}}, {"type": "Feature", "properties": {"NUTS_ID": "TR71", "LEVL_CODE": 2, "CNTR_CODE": "TR", "NAME_LATN": "Kırıkkale, Aksaray, Niğde, Nevşehir, Kırşehir", "NUTS_NAME": "Kırıkkale, Aksaray, Niğde, Nevşehir, Kırşehir", "MOUNT_TYPE": 0, "URBN_TYPE": 0, "COAST_TYPE": 0}, "geometry": {"type": "Point", "coordinates": [34.21964156100006, 38.75720094700006]}}, {"type": "Feature", "properties": {"NUTS_ID": "TR72", "LEVL_CODE": 2, "CNTR_CODE": "TR", "NAME_LATN": "Kayseri, Sivas, Yozgat", "NUTS_NAME": "Kayseri, Sivas, Yozgat", "MOUNT_TYPE": 0, "URBN_TYPE": 0, "COAST_TYPE": 0}, "geometry": {"type": "Point", "coordinates": [36.39869466000005, 39.30941974800004]}}, {"type": "Feature", "properties": {"NUTS_ID": "TR81", "LEVL_CODE": 2, "CNTR_CODE": "TR", "NAME_LATN": "Zonguldak, Karabük, Bartın", "NUTS_NAME": "Zonguldak, Karabük, Bartın", "MOUNT_TYPE": 0, "URBN_TYPE": 0, "COAST_TYPE": 0}, "geometry": {"type": "Point", "coordinates": [32.34229546500006, 41.29555666300007]}}, {"type": "Feature", "properties": {"NUTS_ID": "TR82", "LEVL_CODE": 2, "CNTR_CODE": "TR", "NAME_LATN": "Kastamonu, Çankırı, Sinop", "NUTS_NAME": "Kastamonu, Çankırı, Sinop", "MOUNT_TYPE": 0, "URBN_TYPE": 0, "COAST_TYPE": 0}, "geometry": {"type": "Point", "coordinates": [33.862950848000025, 41.30286354100008]}}, {"type": "Feature", "properties": {"NUTS_ID": "TR83", "LEVL_CODE": 2, "CNTR_CODE": "TR", "NAME_LATN": "Samsun, Tokat, Çorum, Amasya", "NUTS_NAME": "Samsun, Tokat, Çorum, Amasya", "MOUNT_TYPE": 0, "URBN_TYPE": 0, "COAST_TYPE": 0}, "geometry": {"type": "Point", "coordinates": [35.62719255600007, 40.705111887000044]}}, {"type": "Feature", "properties": {"NUTS_ID": "TR90", "LEVL_CODE": 2, "CNTR_CODE": "TR", "NAME_LATN": "Trabzon, Ordu, Giresun, Rize, Artvin, Gümüşhane", "NUTS_NAME": "Trabzon, Ordu, Giresun, Rize, Artvin, Gümüşhane", "MOUNT_TYPE": 0, "URBN_TYPE": 0, "COAST_TYPE": 0}, "geometry": {"type": "Point", "coordinates": [39.64990277700008, 40.76752358200008]}}, {"type": "Feature", "properties": {"NUTS_ID": "TRA1", "LEVL_CODE": 2, "CNTR_CODE": "TR", "NAME_LATN": "Erzurum, Erzincan, Bayburt", "NUTS_NAME": "Erzurum, Erzincan, Bayburt", "MOUNT_TYPE": 0, "URBN_TYPE": 0, "COAST_TYPE": 0}, "geometry": {"type": "Point", "coordinates": [40.769443454000054, 39.95442089100004]}}, {"type": "Feature", "properties": {"NUTS_ID": "TRA2", "LEVL_CODE": 2, "CNTR_CODE": "TR", "NAME_LATN": "Ağrı, Kars, Iğdır, Ardahan", "NUTS_NAME": "Ağrı, Kars, Iğdır, Ardahan", "MOUNT_TYPE": 0, "URBN_TYPE": 0, "COAST_TYPE": 0}, "geometry": {"type": "Point", "coordinates": [43.19785434100004, 40.16244159800004]}}, {"type": "Feature", "properties": {"NUTS_ID": "TRB1", "LEVL_CODE": 2, "CNTR_CODE": "TR", "NAME_LATN": "Malatya, Elazığ, Bingöl, Tunceli", "NUTS_NAME": "Malatya, Elazığ, Bingöl, Tunceli", "MOUNT_TYPE": 0, "URBN_TYPE": 0, "COAST_TYPE": 0}, "geometry": {"type": "Point", "coordinates": [39.308762229000024, 38.816038167000045]}}, {"type": "Feature", "properties": {"NUTS_ID": "TRB2", "LEVL_CODE": 2, "CNTR_CODE": "TR", "NAME_LATN": "Van, Muş, Bitlis, Hakkari", "NUTS_NAME": "Van, Muş, Bitlis, Hakkari", "MOUNT_TYPE": 0, "URBN_TYPE": 0, "COAST_TYPE": 0}, "geometry": {"type": "Point", "coordinates": [43.11793755400004, 38.414818678000074]}}, {"type": "Feature", "properties": {"NUTS_ID": "TRC1", "LEVL_CODE": 2, "CNTR_CODE": "TR", "NAME_LATN": "Gaziantep, Adıyaman, Kilis", "NUTS_NAME": "Gaziantep, Adıyaman, Kilis", "MOUNT_TYPE": 0, "URBN_TYPE": 0, "COAST_TYPE": 0}, "geometry": {"type": "Point", "coordinates": [37.12994150000003, 36.94778414600006]}}, {"type": "Feature", "properties": {"NUTS_ID": "TRC2", "LEVL_CODE": 2, "CNTR_CODE": "TR", "NAME_LATN": "Şanlıurfa, Diyarbakır", "NUTS_NAME": "Şanlıurfa, Diyarbakır", "MOUNT_TYPE": 0, "URBN_TYPE": 0, "COAST_TYPE": 0}, "geometry": {"type": "Point", "coordinates": [40.50434033600004, 38.07627987400008]}}, {"type": "Feature", "properties": {"NUTS_ID": "TRC3", "LEVL_CODE": 2, "CNTR_CODE": "TR", "NAME_LATN": "Mardin, Batman, Şırnak, Siirt", "NUTS_NAME": "Mardin, Batman, Şırnak, Siirt", "MOUNT_TYPE": 0, "URBN_TYPE": 0, "COAST_TYPE": 0}, "geometry": {"type": "Point", "coordinates": [41.65962125800007, 37.58752868600004]}}, {"type": "Feature", "properties": {"NUTS_ID": "UKC1", "LEVL_CODE": 2, "CNTR_CODE": "UK", "NAME_LATN": "Tees Valley and Durham", "NUTS_NAME": "Tees Valley and Durham", "MOUNT_TYPE": 0, "URBN_TYPE": 0, "COAST_TYPE": 0}, "geometry": {"type": "Point", "coordinates": [-1.700518700999964, 54.66837394100003]}}, {"type": "Feature", "properties": {"NUTS_ID": "UKC2", "LEVL_CODE": 2, "CNTR_CODE": "UK", "NAME_LATN": "Northumberland and Tyne and Wear", "NUTS_NAME": "Northumberland and Tyne and Wear", "MOUNT_TYPE": 0, "URBN_TYPE": 0, "COAST_TYPE": 0}, "geometry": {"type": "Point", "coordinates": [-2.001193924999939, 55.221344798000075]}}, {"type": "Feature", "properties": {"NUTS_ID": "UKD1", "LEVL_CODE": 2, "CNTR_CODE": "UK", "NAME_LATN": "Cumbria", "NUTS_NAME": "Cumbria", "MOUNT_TYPE": 0, "URBN_TYPE": 0, "COAST_TYPE": 0}, "geometry": {"type": "Point", "coordinates": [-2.872362521999946, 54.59733691200006]}}, {"type": "Feature", "properties": {"NUTS_ID": "UKD3", "LEVL_CODE": 2, "CNTR_CODE": "UK", "NAME_LATN": "Greater Manchester", "NUTS_NAME": "Greater Manchester", "MOUNT_TYPE": 0, "URBN_TYPE": 0, "COAST_TYPE": 0}, "geometry": {"type": "Point", "coordinates": [-2.280399478999925, 53.512091972000064]}}, {"type": "Feature", "properties": {"NUTS_ID": "UKD4", "LEVL_CODE": 2, "CNTR_CODE": "UK", "NAME_LATN": "Lancashire", "NUTS_NAME": "Lancashire", "MOUNT_TYPE": 0, "URBN_TYPE": 0, "COAST_TYPE": 0}, "geometry": {"type": "Point", "coordinates": [-2.572224852999966, 53.848973311000066]}}, {"type": "Feature", "properties": {"NUTS_ID": "UKD6", "LEVL_CODE": 2, "CNTR_CODE": "UK", "NAME_LATN": "Cheshire", "NUTS_NAME": "Cheshire", "MOUNT_TYPE": 0, "URBN_TYPE": 0, "COAST_TYPE": 0}, "geometry": {"type": "Point", "coordinates": [-2.512391770999955, 53.20595299800004]}}, {"type": "Feature", "properties": {"NUTS_ID": "UKD7", "LEVL_CODE": 2, "CNTR_CODE": "UK", "NAME_LATN": "Merseyside", "NUTS_NAME": "Merseyside", "MOUNT_TYPE": 0, "URBN_TYPE": 0, "COAST_TYPE": 0}, "geometry": {"type": "Point", "coordinates": [-2.821982914999978, 53.41250148700004]}}, {"type": "Feature", "properties": {"NUTS_ID": "UKE1", "LEVL_CODE": 2, "CNTR_CODE": "UK", "NAME_LATN": "East Yorkshire and Northern Lincolnshire", "NUTS_NAME": "East Yorkshire and Northern Lincolnshire", "MOUNT_TYPE": 0, "URBN_TYPE": 0, "COAST_TYPE": 0}, "geometry": {"type": "Point", "coordinates": [-0.521565310999961, 53.89552999300008]}}, {"type": "Feature", "properties": {"NUTS_ID": "UKE2", "LEVL_CODE": 2, "CNTR_CODE": "UK", "NAME_LATN": "North Yorkshire", "NUTS_NAME": "North Yorkshire", "MOUNT_TYPE": 0, "URBN_TYPE": 0, "COAST_TYPE": 0}, "geometry": {"type": "Point", "coordinates": [-1.415311147999944, 54.18199812300003]}}, {"type": "Feature", "properties": {"NUTS_ID": "UKE3", "LEVL_CODE": 2, "CNTR_CODE": "UK", "NAME_LATN": "South Yorkshire", "NUTS_NAME": "South Yorkshire", "MOUNT_TYPE": 0, "URBN_TYPE": 0, "COAST_TYPE": 0}, "geometry": {"type": "Point", "coordinates": [-1.343729499999938, 53.45456741900006]}}, {"type": "Feature", "properties": {"NUTS_ID": "UKE4", "LEVL_CODE": 2, "CNTR_CODE": "UK", "NAME_LATN": "West Yorkshire", "NUTS_NAME": "West Yorkshire", "MOUNT_TYPE": 0, "URBN_TYPE": 0, "COAST_TYPE": 0}, "geometry": {"type": "Point", "coordinates": [-1.705324141999938, 53.72831844500007]}}, {"type": "Feature", "properties": {"NUTS_ID": "UKF1", "LEVL_CODE": 2, "CNTR_CODE": "UK", "NAME_LATN": "Derbyshire and Nottinghamshire", "NUTS_NAME": "Derbyshire and Nottinghamshire", "MOUNT_TYPE": 0, "URBN_TYPE": 0, "COAST_TYPE": 0}, "geometry": {"type": "Point", "coordinates": [-1.404623998999966, 53.07045672700008]}}, {"type": "Feature", "properties": {"NUTS_ID": "UKF2", "LEVL_CODE": 2, "CNTR_CODE": "UK", "NAME_LATN": "Leicestershire, Rutland and Northamptonshire", "NUTS_NAME": "Leicestershire, Rutland and Northamptonshire", "MOUNT_TYPE": 0, "URBN_TYPE": 0, "COAST_TYPE": 0}, "geometry": {"type": "Point", "coordinates": [-0.953882628999963, 52.50144433100007]}}, {"type": "Feature", "properties": {"NUTS_ID": "UKF3", "LEVL_CODE": 2, "CNTR_CODE": "UK", "NAME_LATN": "Lincolnshire", "NUTS_NAME": "Lincolnshire", "MOUNT_TYPE": 0, "URBN_TYPE": 0, "COAST_TYPE": 0}, "geometry": {"type": "Point", "coordinates": [-0.266675592999945, 53.09529624700008]}}, {"type": "Feature", "properties": {"NUTS_ID": "UKG1", "LEVL_CODE": 2, "CNTR_CODE": "UK", "NAME_LATN": "Herefordshire, Worcestershire and Warwickshire", "NUTS_NAME": "Herefordshire, Worcestershire and Warwickshire", "MOUNT_TYPE": 0, "URBN_TYPE": 0, "COAST_TYPE": 0}, "geometry": {"type": "Point", "coordinates": [-2.168235189999962, 52.21191376100006]}}, {"type": "Feature", "properties": {"NUTS_ID": "UKG2", "LEVL_CODE": 2, "CNTR_CODE": "UK", "NAME_LATN": "Shropshire and Staffordshire", "NUTS_NAME": "Shropshire and Staffordshire", "MOUNT_TYPE": 0, "URBN_TYPE": 0, "COAST_TYPE": 0}, "geometry": {"type": "Point", "coordinates": [-2.407190364999963, 52.73671677200008]}}, {"type": "Feature", "properties": {"NUTS_ID": "UKG3", "LEVL_CODE": 2, "CNTR_CODE": "UK", "NAME_LATN": "West Midlands", "NUTS_NAME": "West Midlands", "MOUNT_TYPE": 0, "URBN_TYPE": 0, "COAST_TYPE": 0}, "geometry": {"type": "Point", "coordinates": [-1.934467613999971, 52.49874654300004]}}, {"type": "Feature", "properties": {"NUTS_ID": "UKH1", "LEVL_CODE": 2, "CNTR_CODE": "UK", "NAME_LATN": "East Anglia", "NUTS_NAME": "East Anglia", "MOUNT_TYPE": 0, "URBN_TYPE": 0, "COAST_TYPE": 0}, "geometry": {"type": "Point", "coordinates": [0.71837206400005, 52.45022057600005]}}, {"type": "Feature", "properties": {"NUTS_ID": "UKH2", "LEVL_CODE": 2, "CNTR_CODE": "UK", "NAME_LATN": "Bedfordshire and Hertfordshire", "NUTS_NAME": "Bedfordshire and Hertfordshire", "MOUNT_TYPE": 0, "URBN_TYPE": 0, "COAST_TYPE": 0}, "geometry": {"type": "Point", "coordinates": [-0.324221904999945, 51.93861693100007]}}, {"type": "Feature", "properties": {"NUTS_ID": "UKH3", "LEVL_CODE": 2, "CNTR_CODE": "UK", "NAME_LATN": "Essex", "NUTS_NAME": "Essex", "MOUNT_TYPE": 0, "URBN_TYPE": 0, "COAST_TYPE": 0}, "geometry": {"type": "Point", "coordinates": [0.480867660000058, 51.79902463700006]}}, {"type": "Feature", "properties": {"NUTS_ID": "UKI3", "LEVL_CODE": 2, "CNTR_CODE": "UK", "NAME_LATN": "Inner London — West", "NUTS_NAME": "Inner London — West", "MOUNT_TYPE": 0, "URBN_TYPE": 0, "COAST_TYPE": 0}, "geometry": {"type": "Point", "coordinates": [-0.165739749999943, 51.52757901500007]}}, {"type": "Feature", "properties": {"NUTS_ID": "UKI4", "LEVL_CODE": 2, "CNTR_CODE": "UK", "NAME_LATN": "Inner London — East", "NUTS_NAME": "Inner London — East", "MOUNT_TYPE": 0, "URBN_TYPE": 0, "COAST_TYPE": 0}, "geometry": {"type": "Point", "coordinates": [-0.104167375999964, 51.570105470000044]}}, {"type": "Feature", "properties": {"NUTS_ID": "UKI5", "LEVL_CODE": 2, "CNTR_CODE": "UK", "NAME_LATN": "Outer London — East and North East", "NUTS_NAME": "Outer London — East and North East", "MOUNT_TYPE": 0, "URBN_TYPE": 0, "COAST_TYPE": 0}, "geometry": {"type": "Point", "coordinates": [0.189297751000026, 51.561453071000074]}}, {"type": "Feature", "properties": {"NUTS_ID": "UKI6", "LEVL_CODE": 2, "CNTR_CODE": "UK", "NAME_LATN": "Outer London — South", "NUTS_NAME": "Outer London — South", "MOUNT_TYPE": 0, "URBN_TYPE": 0, "COAST_TYPE": 0}, "geometry": {"type": "Point", "coordinates": [-0.081277798999963, 51.37727815900007]}}, {"type": "Feature", "properties": {"NUTS_ID": "UKI7", "LEVL_CODE": 2, "CNTR_CODE": "UK", "NAME_LATN": "Outer London — West and North West", "NUTS_NAME": "Outer London — West and North West", "MOUNT_TYPE": 0, "URBN_TYPE": 0, "COAST_TYPE": 0}, "geometry": {"type": "Point", "coordinates": [-0.333770915999935, 51.53941112100006]}}, {"type": "Feature", "properties": {"NUTS_ID": "UKJ1", "LEVL_CODE": 2, "CNTR_CODE": "UK", "NAME_LATN": "Berkshire, Buckinghamshire and Oxfordshire", "NUTS_NAME": "Berkshire, Buckinghamshire and Oxfordshire", "MOUNT_TYPE": 0, "URBN_TYPE": 0, "COAST_TYPE": 0}, "geometry": {"type": "Point", "coordinates": [-1.096799827999973, 51.71361731600007]}}, {"type": "Feature", "properties": {"NUTS_ID": "UKJ2", "LEVL_CODE": 2, "CNTR_CODE": "UK", "NAME_LATN": "Surrey, East and West Sussex", "NUTS_NAME": "Surrey, East and West Sussex", "MOUNT_TYPE": 0, "URBN_TYPE": 0, "COAST_TYPE": 0}, "geometry": {"type": "Point", "coordinates": [-0.223544143999959, 51.059323498000026]}}, {"type": "Feature", "properties": {"NUTS_ID": "UKJ3", "LEVL_CODE": 2, "CNTR_CODE": "UK", "NAME_LATN": "Hampshire and Isle of Wight", "NUTS_NAME": "Hampshire and Isle of Wight", "MOUNT_TYPE": 0, "URBN_TYPE": 0, "COAST_TYPE": 0}, "geometry": {"type": "Point", "coordinates": [-1.272860984999966, 51.07854438600003]}}, {"type": "Feature", "properties": {"NUTS_ID": "UKJ4", "LEVL_CODE": 2, "CNTR_CODE": "UK", "NAME_LATN": "Kent", "NUTS_NAME": "Kent", "MOUNT_TYPE": 0, "URBN_TYPE": 0, "COAST_TYPE": 0}, "geometry": {"type": "Point", "coordinates": [0.669272482000054, 51.218104356000026]}}, {"type": "Feature", "properties": {"NUTS_ID": "UKK1", "LEVL_CODE": 2, "CNTR_CODE": "UK", "NAME_LATN": "Gloucestershire, Wiltshire and Bristol/Bath area", "NUTS_NAME": "Gloucestershire, Wiltshire and Bristol/Bath area", "MOUNT_TYPE": 0, "URBN_TYPE": 0, "COAST_TYPE": 0}, "geometry": {"type": "Point", "coordinates": [-2.114190684999926, 51.545149425000034]}}, {"type": "Feature", "properties": {"NUTS_ID": "UKK2", "LEVL_CODE": 2, "CNTR_CODE": "UK", "NAME_LATN": "Dorset and Somerset", "NUTS_NAME": "Dorset and Somerset", "MOUNT_TYPE": 0, "URBN_TYPE": 0, "COAST_TYPE": 0}, "geometry": {"type": "Point", "coordinates": [-2.674123863999966, 50.995573740000054]}}, {"type": "Feature", "properties": {"NUTS_ID": "UKK3", "LEVL_CODE": 2, "CNTR_CODE": "UK", "NAME_LATN": "Cornwall and Isles of Scilly", "NUTS_NAME": "Cornwall and Isles of Scilly", "MOUNT_TYPE": 0, "URBN_TYPE": 0, "COAST_TYPE": 0}, "geometry": {"type": "Point", "coordinates": [-4.776217369999927, 50.44006533900006]}}, {"type": "Feature", "properties": {"NUTS_ID": "UKK4", "LEVL_CODE": 2, "CNTR_CODE": "UK", "NAME_LATN": "Devon", "NUTS_NAME": "Devon", "MOUNT_TYPE": 0, "URBN_TYPE": 0, "COAST_TYPE": 0}, "geometry": {"type": "Point", "coordinates": [-3.800583726999946, 50.74489407600004]}}, {"type": "Feature", "properties": {"NUTS_ID": "UKL1", "LEVL_CODE": 2, "CNTR_CODE": "UK", "NAME_LATN": "West Wales and The Valleys", "NUTS_NAME": "West Wales and The Valleys", "MOUNT_TYPE": 0, "URBN_TYPE": 0, "COAST_TYPE": 0}, "geometry": {"type": "Point", "coordinates": [-4.08886185199998, 52.05848198700005]}}, {"type": "Feature", "properties": {"NUTS_ID": "UKL2", "LEVL_CODE": 2, "CNTR_CODE": "UK", "NAME_LATN": "East Wales", "NUTS_NAME": "East Wales", "MOUNT_TYPE": 0, "URBN_TYPE": 0, "COAST_TYPE": 0}, "geometry": {"type": "Point", "coordinates": [-3.304926314999932, 52.28962904800005]}}, {"type": "Feature", "properties": {"NUTS_ID": "UKM5", "LEVL_CODE": 2, "CNTR_CODE": "UK", "NAME_LATN": "North Eastern Scotland", "NUTS_NAME": "North Eastern Scotland", "MOUNT_TYPE": 0, "URBN_TYPE": 0, "COAST_TYPE": 0}, "geometry": {"type": "Point", "coordinates": [-2.687610140999936, 57.20212961900006]}}, {"type": "Feature", "properties": {"NUTS_ID": "UKM6", "LEVL_CODE": 2, "CNTR_CODE": "UK", "NAME_LATN": "Highlands and Islands", "NUTS_NAME": "Highlands and Islands", "MOUNT_TYPE": 0, "URBN_TYPE": 0, "COAST_TYPE": 0}, "geometry": {"type": "Point", "coordinates": [-4.709065902999953, 57.22570845300004]}}, {"type": "Feature", "properties": {"NUTS_ID": "UKM7", "LEVL_CODE": 2, "CNTR_CODE": "UK", "NAME_LATN": "Eastern Scotland", "NUTS_NAME": "Eastern Scotland", "MOUNT_TYPE": 0, "URBN_TYPE": 0, "COAST_TYPE": 0}, "geometry": {"type": "Point", "coordinates": [-4.181014500999936, 56.44331893100008]}}, {"type": "Feature", "properties": {"NUTS_ID": "UKM8", "LEVL_CODE": 2, "CNTR_CODE": "UK", "NAME_LATN": "West Central Scotland", "NUTS_NAME": "West Central Scotland", "MOUNT_TYPE": 0, "URBN_TYPE": 0, "COAST_TYPE": 0}, "geometry": {"type": "Point", "coordinates": [-4.601569779999977, 55.85780944100003]}}, {"type": "Feature", "properties": {"NUTS_ID": "UKM9", "LEVL_CODE": 2, "CNTR_CODE": "UK", "NAME_LATN": "Southern Scotland", "NUTS_NAME": "Southern Scotland", "MOUNT_TYPE": 0, "URBN_TYPE": 0, "COAST_TYPE": 0}, "geometry": {"type": "Point", "coordinates": [-3.696155512999951, 55.36038063600006]}}, {"type": "Feature", "properties": {"NUTS_ID": "UKN0", "LEVL_CODE": 2, "CNTR_CODE": "UK", "NAME_LATN": "Northern Ireland", "NUTS_NAME": "Northern Ireland", "MOUNT_TYPE": 0, "URBN_TYPE": 0, "COAST_TYPE": 0}, "geometry": {"type": "Point", "coordinates": [-6.625297036999939, 54.630550207000056]}}, {"type": "Feature", "properties": {"NUTS_ID": "AL01", "LEVL_CODE": 2, "CNTR_CODE": "AL", "NAME_LATN": "Veri", "NUTS_NAME": "Veri", "MOUNT_TYPE": 0, "URBN_TYPE": 0, "COAST_TYPE": 0}, "geometry": {"type": "Point", "coordinates": [19.97834447100007, 41.942526901000065]}}, {"type": "Feature", "properties": {"NUTS_ID": "AL02", "LEVL_CODE": 2, "CNTR_CODE": "AL", "NAME_LATN": "Qender", "NUTS_NAME": "Qender", "MOUNT_TYPE": 0, "URBN_TYPE": 0, "COAST_TYPE": 0}, "geometry": {"type": "Point", "coordinates": [20.057253682000066, 41.13693069800007]}}, {"type": "Feature", "properties": {"NUTS_ID": "AL03", "LEVL_CODE": 2, "CNTR_CODE": "AL", "NAME_LATN": "Jug", "NUTS_NAME": "Jug", "MOUNT_TYPE": 0, "URBN_TYPE": 0, "COAST_TYPE": 0}, "geometry": {"type": "Point", "coordinates": [20.154570200000023, 40.46983960800003]}}, {"type": "Feature", "properties": {"NUTS_ID": "AT11", "LEVL_CODE": 2, "CNTR_CODE": "AT", "NAME_LATN": "Burgenland", "NUTS_NAME": "Burgenland", "MOUNT_TYPE": 0, "URBN_TYPE": 0, "COAST_TYPE": 0}, "geometry": {"type": "Point", "coordinates": [16.287376375000065, 47.23607559200008]}}, {"type": "Feature", "properties": {"NUTS_ID": "AT12", "LEVL_CODE": 2, "CNTR_CODE": "AT", "NAME_LATN": "Niederösterreich", "NUTS_NAME": "Niederösterreich", "MOUNT_TYPE": 0, "URBN_TYPE": 0, "COAST_TYPE": 0}, "geometry": {"type": "Point", "coordinates": [15.760103308000055, 48.25887966800008]}}, {"type": "Feature", "properties": {"NUTS_ID": "AT13", "LEVL_CODE": 2, "CNTR_CODE": "AT", "NAME_LATN": "Wien", "NUTS_NAME": "Wien", "MOUNT_TYPE": 0, "URBN_TYPE": 0, "COAST_TYPE": 0}, "geometry": {"type": "Point", "coordinates": [16.393215114000043, 48.20277454100005]}}, {"type": "Feature", "properties": {"NUTS_ID": "AT21", "LEVL_CODE": 2, "CNTR_CODE": "AT", "NAME_LATN": "Kärnten", "NUTS_NAME": "Kärnten", "MOUNT_TYPE": 0, "URBN_TYPE": 0, "COAST_TYPE": 0}, "geometry": {"type": "Point", "coordinates": [14.462861124000028, 46.716091136000045]}}, {"type": "Feature", "properties": {"NUTS_ID": "AT22", "LEVL_CODE": 2, "CNTR_CODE": "AT", "NAME_LATN": "Steiermark", "NUTS_NAME": "Steiermark", "MOUNT_TYPE": 0, "URBN_TYPE": 0, "COAST_TYPE": 0}, "geometry": {"type": "Point", "coordinates": [15.52470687500005, 47.18181399300005]}}, {"type": "Feature", "properties": {"NUTS_ID": "AT31", "LEVL_CODE": 2, "CNTR_CODE": "AT", "NAME_LATN": "Oberösterreich", "NUTS_NAME": "Oberösterreich", "MOUNT_TYPE": 0, "URBN_TYPE": 0, "COAST_TYPE": 0}, "geometry": {"type": "Point", "coordinates": [13.950301256000046, 48.143015208000065]}}, {"type": "Feature", "properties": {"NUTS_ID": "AT32", "LEVL_CODE": 2, "CNTR_CODE": "AT", "NAME_LATN": "Salzburg", "NUTS_NAME": "Salzburg", "MOUNT_TYPE": 0, "URBN_TYPE": 0, "COAST_TYPE": 0}, "geometry": {"type": "Point", "coordinates": [13.000196795000022, 47.282274201000064]}}, {"type": "Feature", "properties": {"NUTS_ID": "AT33", "LEVL_CODE": 2, "CNTR_CODE": "AT", "NAME_LATN": "Tirol", "NUTS_NAME": "Tirol", "MOUNT_TYPE": 0, "URBN_TYPE": 0, "COAST_TYPE": 0}, "geometry": {"type": "Point", "coordinates": [10.763511226000048, 47.180935247000036]}}, {"type": "Feature", "properties": {"NUTS_ID": "AT34", "LEVL_CODE": 2, "CNTR_CODE": "AT", "NAME_LATN": "Vorarlberg", "NUTS_NAME": "Vorarlberg", "MOUNT_TYPE": 0, "URBN_TYPE": 0, "COAST_TYPE": 0}, "geometry": {"type": "Point", "coordinates": [9.885115430000042, 47.236601214000075]}}, {"type": "Feature", "properties": {"NUTS_ID": "BE10", "LEVL_CODE": 2, "CNTR_CODE": "BE", "NAME_LATN": "Région de Bruxelles-Capitale/ Brussels Hoofdstedelijk Gewest", "NUTS_NAME": "Région de Bruxelles-Capitale/ Brussels Hoofdstedelijk Gewest", "MOUNT_TYPE": 0, "URBN_TYPE": 0, "COAST_TYPE": 0}, "geometry": {"type": "Point", "coordinates": [4.356929018000073, 50.840051206000055]}}, {"type": "Feature", "properties": {"NUTS_ID": "BE21", "LEVL_CODE": 2, "CNTR_CODE": "BE", "NAME_LATN": "Prov. Antwerpen", "NUTS_NAME": "Prov. Antwerpen", "MOUNT_TYPE": 0, "URBN_TYPE": 0, "COAST_TYPE": 0}, "geometry": {"type": "Point", "coordinates": [4.724505922000048, 51.22122368500004]}}, {"type": "Feature", "properties": {"NUTS_ID": "BE22", "LEVL_CODE": 2, "CNTR_CODE": "BE", "NAME_LATN": "Prov. Limburg (BE)", "NUTS_NAME": "Prov. Limburg (BE)", "MOUNT_TYPE": 0, "URBN_TYPE": 0, "COAST_TYPE": 0}, "geometry": {"type": "Point", "coordinates": [5.412069092000024, 50.98167502000007]}}, {"type": "Feature", "properties": {"NUTS_ID": "BE23", "LEVL_CODE": 2, "CNTR_CODE": "BE", "NAME_LATN": "Prov. Oost-Vlaanderen", "NUTS_NAME": "Prov. Oost-Vlaanderen", "MOUNT_TYPE": 0, "URBN_TYPE": 0, "COAST_TYPE": 0}, "geometry": {"type": "Point", "coordinates": [3.809139973000072, 51.03164618900007]}}, {"type": "Feature", "properties": {"NUTS_ID": "BE24", "LEVL_CODE": 2, "CNTR_CODE": "BE", "NAME_LATN": "Prov. Vlaams-Brabant", "NUTS_NAME": "Prov. Vlaams-Brabant", "MOUNT_TYPE": 0, "URBN_TYPE": 0, "COAST_TYPE": 0}, "geometry": {"type": "Point", "coordinates": [4.572486175000051, 50.87369647100007]}}, {"type": "Feature", "properties": {"NUTS_ID": "BE25", "LEVL_CODE": 2, "CNTR_CODE": "BE", "NAME_LATN": "Prov. West-Vlaanderen", "NUTS_NAME": "Prov. West-Vlaanderen", "MOUNT_TYPE": 0, "URBN_TYPE": 0, "COAST_TYPE": 0}, "geometry": {"type": "Point", "coordinates": [3.051667941000062, 51.01778623300004]}}, {"type": "Feature", "properties": {"NUTS_ID": "BE31", "LEVL_CODE": 2, "CNTR_CODE": "BE", "NAME_LATN": "Prov. Brabant Wallon", "NUTS_NAME": "Prov. Brabant Wallon", "MOUNT_TYPE": 0, "URBN_TYPE": 0, "COAST_TYPE": 0}, "geometry": {"type": "Point", "coordinates": [4.59226239700007, 50.66591500100003]}}, {"type": "Feature", "properties": {"NUTS_ID": "BE32", "LEVL_CODE": 2, "CNTR_CODE": "BE", "NAME_LATN": "Prov. Hainaut", "NUTS_NAME": "Prov. Hainaut", "MOUNT_TYPE": 0, "URBN_TYPE": 0, "COAST_TYPE": 0}, "geometry": {"type": "Point", "coordinates": [3.916978250000057, 50.52547120200006]}}, {"type": "Feature", "properties": {"NUTS_ID": "BE33", "LEVL_CODE": 2, "CNTR_CODE": "BE", "NAME_LATN": "Prov. Liège", "NUTS_NAME": "Prov. Liège", "MOUNT_TYPE": 0, "URBN_TYPE": 0, "COAST_TYPE": 0}, "geometry": {"type": "Point", "coordinates": [5.731036154000037, 50.520304870000075]}}, {"type": "Feature", "properties": {"NUTS_ID": "BE34", "LEVL_CODE": 2, "CNTR_CODE": "BE", "NAME_LATN": "Prov. Luxembourg (BE)", "NUTS_NAME": "Prov. Luxembourg (BE)", "MOUNT_TYPE": 0, "URBN_TYPE": 0, "COAST_TYPE": 0}, "geometry": {"type": "Point", "coordinates": [5.521065669000052, 49.956790666000074]}}, {"type": "Feature", "properties": {"NUTS_ID": "BE35", "LEVL_CODE": 2, "CNTR_CODE": "BE", "NAME_LATN": "Prov. Namur", "NUTS_NAME": "Prov. Namur", "MOUNT_TYPE": 0, "URBN_TYPE": 0, "COAST_TYPE": 0}, "geometry": {"type": "Point", "coordinates": [4.867007200000046, 50.27364334600003]}}, {"type": "Feature", "properties": {"NUTS_ID": "BG31", "LEVL_CODE": 2, "CNTR_CODE": "BG", "NAME_LATN": "Severozapaden", "NUTS_NAME": "Северозападен", "MOUNT_TYPE": 0, "URBN_TYPE": 0, "COAST_TYPE": 0}, "geometry": {"type": "Point", "coordinates": [23.876275132000046, 43.42009425300006]}}, {"type": "Feature", "properties": {"NUTS_ID": "BG32", "LEVL_CODE": 2, "CNTR_CODE": "BG", "NAME_LATN": "Severen tsentralen", "NUTS_NAME": "Северен централен", "MOUNT_TYPE": 0, "URBN_TYPE": 0, "COAST_TYPE": 0}, "geometry": {"type": "Point", "coordinates": [25.593005066000046, 43.22229867900006]}}, {"type": "Feature", "properties": {"NUTS_ID": "BG33", "LEVL_CODE": 2, "CNTR_CODE": "BG", "NAME_LATN": "Severoiztochen", "NUTS_NAME": "Североизточен", "MOUNT_TYPE": 0, "URBN_TYPE": 0, "COAST_TYPE": 0}, "geometry": {"type": "Point", "coordinates": [27.35116520300005, 43.36483347600006]}}, {"type": "Feature", "properties": {"NUTS_ID": "BG34", "LEVL_CODE": 2, "CNTR_CODE": "BG", "NAME_LATN": "Yugoiztochen", "NUTS_NAME": "Югоизточен", "MOUNT_TYPE": 0, "URBN_TYPE": 0, "COAST_TYPE": 0}, "geometry": {"type": "Point", "coordinates": [26.553411965000066, 42.47985229200003]}}, {"type": "Feature", "properties": {"NUTS_ID": "BG41", "LEVL_CODE": 2, "CNTR_CODE": "BG", "NAME_LATN": "Yugozapaden", "NUTS_NAME": "Югозападен", "MOUNT_TYPE": 0, "URBN_TYPE": 0, "COAST_TYPE": 0}, "geometry": {"type": "Point", "coordinates": [23.33565629800006, 42.32353712200006]}}, {"type": "Feature", "properties": {"NUTS_ID": "BG42", "LEVL_CODE": 2, "CNTR_CODE": "BG", "NAME_LATN": "Yuzhen tsentralen", "NUTS_NAME": "Южен централен", "MOUNT_TYPE": 0, "URBN_TYPE": 0, "COAST_TYPE": 0}, "geometry": {"type": "Point", "coordinates": [25.166902251000067, 41.742121878000034]}}, {"type": "Feature", "properties": {"NUTS_ID": "CH01", "LEVL_CODE": 2, "CNTR_CODE": "CH", "NAME_LATN": "Région lémanique", "NUTS_NAME": "Région lémanique", "MOUNT_TYPE": 0, "URBN_TYPE": 0, "COAST_TYPE": 0}, "geometry": {"type": "Point", "coordinates": [7.216870249000067, 46.13807419800003]}}, {"type": "Feature", "properties": {"NUTS_ID": "CH02", "LEVL_CODE": 2, "CNTR_CODE": "CH", "NAME_LATN": "Espace Mittelland", "NUTS_NAME": "Espace Mittelland", "MOUNT_TYPE": 0, "URBN_TYPE": 0, "COAST_TYPE": 0}, "geometry": {"type": "Point", "coordinates": [7.433501215000035, 46.90746201600007]}}, {"type": "Feature", "properties": {"NUTS_ID": "CH03", "LEVL_CODE": 2, "CNTR_CODE": "CH", "NAME_LATN": "Nordwestschweiz", "NUTS_NAME": "Nordwestschweiz", "MOUNT_TYPE": 0, "URBN_TYPE": 0, "COAST_TYPE": 0}, "geometry": {"type": "Point", "coordinates": [8.197552250000058, 47.42007438700006]}}, {"type": "Feature", "properties": {"NUTS_ID": "CH04", "LEVL_CODE": 2, "CNTR_CODE": "CH", "NAME_LATN": "Zürich", "NUTS_NAME": "Zürich", "MOUNT_TYPE": 0, "URBN_TYPE": 0, "COAST_TYPE": 0}, "geometry": {"type": "Point", "coordinates": [8.646064545000058, 47.40740398300005]}}, {"type": "Feature", "properties": {"NUTS_ID": "CH05", "LEVL_CODE": 2, "CNTR_CODE": "CH", "NAME_LATN": "Ostschweiz", "NUTS_NAME": "Ostschweiz", "MOUNT_TYPE": 0, "URBN_TYPE": 0, "COAST_TYPE": 0}, "geometry": {"type": "Point", "coordinates": [9.57005625000005, 46.74022306000006]}}, {"type": "Feature", "properties": {"NUTS_ID": "CH06", "LEVL_CODE": 2, "CNTR_CODE": "CH", "NAME_LATN": "Zentralschweiz", "NUTS_NAME": "Zentralschweiz", "MOUNT_TYPE": 0, "URBN_TYPE": 0, "COAST_TYPE": 0}, "geometry": {"type": "Point", "coordinates": [8.43995654400004, 46.97064328600004]}}, {"type": "Feature", "properties": {"NUTS_ID": "CH07", "LEVL_CODE": 2, "CNTR_CODE": "CH", "NAME_LATN": "Ticino", "NUTS_NAME": "Ticino", "MOUNT_TYPE": 0, "URBN_TYPE": 0, "COAST_TYPE": 0}, "geometry": {"type": "Point", "coordinates": [8.808152987000028, 46.30450776400005]}}, {"type": "Feature", "properties": {"NUTS_ID": "CY00", "LEVL_CODE": 2, "CNTR_CODE": "CY", "NAME_LATN": "Kýpros", "NUTS_NAME": "Κύπρος", "MOUNT_TYPE": 0, "URBN_TYPE": 0, "COAST_TYPE": 0}, "geometry": {"type": "Point", "coordinates": [33.173903437000035, 35.028353010000046]}}, {"type": "Feature", "properties": {"NUTS_ID": "CZ01", "LEVL_CODE": 2, "CNTR_CODE": "CZ", "NAME_LATN": "Praha", "NUTS_NAME": "Praha", "MOUNT_TYPE": 0, "URBN_TYPE": 0, "COAST_TYPE": 0}, "geometry": {"type": "Point", "coordinates": [14.462998193000033, 50.066265015000056]}}, {"type": "Feature", "properties": {"NUTS_ID": "CZ02", "LEVL_CODE": 2, "CNTR_CODE": "CZ", "NAME_LATN": "Střední Čechy", "NUTS_NAME": "Střední Čechy", "MOUNT_TYPE": 0, "URBN_TYPE": 0, "COAST_TYPE": 0}, "geometry": {"type": "Point", "coordinates": [14.454853810000031, 49.74228369700006]}}, {"type": "Feature", "properties": {"NUTS_ID": "CZ03", "LEVL_CODE": 2, "CNTR_CODE": "CZ", "NAME_LATN": "Jihozápad", "NUTS_NAME": "Jihozápad", "MOUNT_TYPE": 0, "URBN_TYPE": 0, "COAST_TYPE": 0}, "geometry": {"type": "Point", "coordinates": [13.994140250000044, 49.12762646400006]}}, {"type": "Feature", "properties": {"NUTS_ID": "CZ04", "LEVL_CODE": 2, "CNTR_CODE": "CZ", "NAME_LATN": "Severozápad", "NUTS_NAME": "Severozápad", "MOUNT_TYPE": 0, "URBN_TYPE": 0, "COAST_TYPE": 0}, "geometry": {"type": "Point", "coordinates": [13.430424456000026, 50.39783559700004]}}, {"type": "Feature", "properties": {"NUTS_ID": "CZ05", "LEVL_CODE": 2, "CNTR_CODE": "CZ", "NAME_LATN": "Severovýchod", "NUTS_NAME": "Severovýchod", "MOUNT_TYPE": 0, "URBN_TYPE": 0, "COAST_TYPE": 0}, "geometry": {"type": "Point", "coordinates": [15.78012602800004, 50.27819621200007]}}, {"type": "Feature", "properties": {"NUTS_ID": "CZ06", "LEVL_CODE": 2, "CNTR_CODE": "CZ", "NAME_LATN": "Jihovýchod", "NUTS_NAME": "Jihovýchod", "MOUNT_TYPE": 0, "URBN_TYPE": 0, "COAST_TYPE": 0}, "geometry": {"type": "Point", "coordinates": [16.17561528400006, 49.240693392000026]}}, {"type": "Feature", "properties": {"NUTS_ID": "CZ07", "LEVL_CODE": 2, "CNTR_CODE": "CZ", "NAME_LATN": "Střední Morava", "NUTS_NAME": "Střední Morava", "MOUNT_TYPE": 0, "URBN_TYPE": 0, "COAST_TYPE": 0}, "geometry": {"type": "Point", "coordinates": [17.435834897000063, 49.539007852000054]}}, {"type": "Feature", "properties": {"NUTS_ID": "CZ08", "LEVL_CODE": 2, "CNTR_CODE": "CZ", "NAME_LATN": "Moravskoslezsko", "NUTS_NAME": "Moravskoslezsko", "MOUNT_TYPE": 0, "URBN_TYPE": 0, "COAST_TYPE": 0}, "geometry": {"type": "Point", "coordinates": [18.00982293000004, 49.80287325200004]}}, {"type": "Feature", "properties": {"NUTS_ID": "DE11", "LEVL_CODE": 2, "CNTR_CODE": "DE", "NAME_LATN": "Stuttgart", "NUTS_NAME": "Stuttgart", "MOUNT_TYPE": 0, "URBN_TYPE": 0, "COAST_TYPE": 0}, "geometry": {"type": "Point", "coordinates": [9.62399580500005, 49.014882130000046]}}, {"type": "Feature", "properties": {"NUTS_ID": "DE12", "LEVL_CODE": 2, "CNTR_CODE": "DE", "NAME_LATN": "Karlsruhe", "NUTS_NAME": "Karlsruhe", "MOUNT_TYPE": 0, "URBN_TYPE": 0, "COAST_TYPE": 0}, "geometry": {"type": "Point", "coordinates": [8.672717129000034, 49.01441471500004]}}, {"type": "Feature", "properties": {"NUTS_ID": "DE13", "LEVL_CODE": 2, "CNTR_CODE": "DE", "NAME_LATN": "Freiburg", "NUTS_NAME": "Freiburg", "MOUNT_TYPE": 0, "URBN_TYPE": 0, "COAST_TYPE": 0}, "geometry": {"type": "Point", "coordinates": [8.218850502000066, 48.02371178900006]}}, {"type": "Feature", "properties": {"NUTS_ID": "DE14", "LEVL_CODE": 2, "CNTR_CODE": "DE", "NAME_LATN": "Tübingen", "NUTS_NAME": "Tübingen", "MOUNT_TYPE": 0, "URBN_TYPE": 0, "COAST_TYPE": 0}, "geometry": {"type": "Point", "coordinates": [9.504136807000066, 48.13160185100003]}}, {"type": "Feature", "properties": {"NUTS_ID": "DE21", "LEVL_CODE": 2, "CNTR_CODE": "DE", "NAME_LATN": "Oberbayern", "NUTS_NAME": "Oberbayern", "MOUNT_TYPE": 0, "URBN_TYPE": 0, "COAST_TYPE": 0}, "geometry": {"type": "Point", "coordinates": [11.74359664700006, 48.10648800700005]}}, {"type": "Feature", "properties": {"NUTS_ID": "DE22", "LEVL_CODE": 2, "CNTR_CODE": "DE", "NAME_LATN": "Niederbayern", "NUTS_NAME": "Niederbayern", "MOUNT_TYPE": 0, "URBN_TYPE": 0, "COAST_TYPE": 0}, "geometry": {"type": "Point", "coordinates": [12.802290123000034, 48.70094910700004]}}, {"type": "Feature", "properties": {"NUTS_ID": "DE23", "LEVL_CODE": 2, "CNTR_CODE": "DE", "NAME_LATN": "Oberpfalz", "NUTS_NAME": "Oberpfalz", "MOUNT_TYPE": 0, "URBN_TYPE": 0, "COAST_TYPE": 0}, "geometry": {"type": "Point", "coordinates": [12.114239307000048, 49.395885915000065]}}, {"type": "Feature", "properties": {"NUTS_ID": "DE24", "LEVL_CODE": 2, "CNTR_CODE": "DE", "NAME_LATN": "Oberfranken", "NUTS_NAME": "Oberfranken", "MOUNT_TYPE": 0, "URBN_TYPE": 0, "COAST_TYPE": 0}, "geometry": {"type": "Point", "coordinates": [11.383034085000077, 50.04922348100007]}}, {"type": "Feature", "properties": {"NUTS_ID": "DE25", "LEVL_CODE": 2, "CNTR_CODE": "DE", "NAME_LATN": "Mittelfranken", "NUTS_NAME": "Mittelfranken", "MOUNT_TYPE": 0, "URBN_TYPE": 0, "COAST_TYPE": 0}, "geometry": {"type": "Point", "coordinates": [10.78114172000005, 49.35244056300007]}}, {"type": "Feature", "properties": {"NUTS_ID": "DE26", "LEVL_CODE": 2, "CNTR_CODE": "DE", "NAME_LATN": "Unterfranken", "NUTS_NAME": "Unterfranken", "MOUNT_TYPE": 0, "URBN_TYPE": 0, "COAST_TYPE": 0}, "geometry": {"type": "Point", "coordinates": [9.939557276000073, 50.01194097500007]}}, {"type": "Feature", "properties": {"NUTS_ID": "DE27", "LEVL_CODE": 2, "CNTR_CODE": "DE", "NAME_LATN": "Schwaben", "NUTS_NAME": "Schwaben", "MOUNT_TYPE": 0, "URBN_TYPE": 0, "COAST_TYPE": 0}, "geometry": {"type": "Point", "coordinates": [10.527713922000032, 48.16798010700006]}}, {"type": "Feature", "properties": {"NUTS_ID": "DE30", "LEVL_CODE": 2, "CNTR_CODE": "DE", "NAME_LATN": "Berlin", "NUTS_NAME": "Berlin", "MOUNT_TYPE": 0, "URBN_TYPE": 0, "COAST_TYPE": 0}, "geometry": {"type": "Point", "coordinates": [13.402229297000076, 52.50046582500005]}}, {"type": "Feature", "properties": {"NUTS_ID": "DE40", "LEVL_CODE": 2, "CNTR_CODE": "DE", "NAME_LATN": "Brandenburg", "NUTS_NAME": "Brandenburg", "MOUNT_TYPE": 0, "URBN_TYPE": 0, "COAST_TYPE": 0}, "geometry": {"type": "Point", "coordinates": [12.138105751000069, 53.083621340000036]}}, {"type": "Feature", "properties": {"NUTS_ID": "DE50", "LEVL_CODE": 2, "CNTR_CODE": "DE", "NAME_LATN": "Bremen", "NUTS_NAME": "Bremen", "MOUNT_TYPE": 0, "URBN_TYPE": 0, "COAST_TYPE": 0}, "geometry": {"type": "Point", "coordinates": [8.787650074000055, 53.106458521000036]}}, {"type": "Feature", "properties": {"NUTS_ID": "DE60", "LEVL_CODE": 2, "CNTR_CODE": "DE", "NAME_LATN": "Hamburg", "NUTS_NAME": "Hamburg", "MOUNT_TYPE": 0, "URBN_TYPE": 0, "COAST_TYPE": 0}, "geometry": {"type": "Point", "coordinates": [10.010044248000042, 53.53919231200007]}}, {"type": "Feature", "properties": {"NUTS_ID": "DE71", "LEVL_CODE": 2, "CNTR_CODE": "DE", "NAME_LATN": "Darmstadt", "NUTS_NAME": "Darmstadt", "MOUNT_TYPE": 0, "URBN_TYPE": 0, "COAST_TYPE": 0}, "geometry": {"type": "Point", "coordinates": [8.760306007000054, 50.06129226200005]}}, {"type": "Feature", "properties": {"NUTS_ID": "DE72", "LEVL_CODE": 2, "CNTR_CODE": "DE", "NAME_LATN": "Gießen", "NUTS_NAME": "Gießen", "MOUNT_TYPE": 0, "URBN_TYPE": 0, "COAST_TYPE": 0}, "geometry": {"type": "Point", "coordinates": [8.791512, 50.71340995200006]}}, {"type": "Feature", "properties": {"NUTS_ID": "DE73", "LEVL_CODE": 2, "CNTR_CODE": "DE", "NAME_LATN": "Kassel", "NUTS_NAME": "Kassel", "MOUNT_TYPE": 0, "URBN_TYPE": 0, "COAST_TYPE": 0}, "geometry": {"type": "Point", "coordinates": [9.455620803000045, 51.05154360000006]}}, {"type": "Feature", "properties": {"NUTS_ID": "DE80", "LEVL_CODE": 2, "CNTR_CODE": "DE", "NAME_LATN": "Mecklenburg-Vorpommern", "NUTS_NAME": "Mecklenburg-Vorpommern", "MOUNT_TYPE": 0, "URBN_TYPE": 0, "COAST_TYPE": 0}, "geometry": {"type": "Point", "coordinates": [12.467490153000028, 53.71383832400005]}}, {"type": "Feature", "properties": {"NUTS_ID": "DE91", "LEVL_CODE": 2, "CNTR_CODE": "DE", "NAME_LATN": "Braunschweig", "NUTS_NAME": "Braunschweig", "MOUNT_TYPE": 0, "URBN_TYPE": 0, "COAST_TYPE": 0}, "geometry": {"type": "Point", "coordinates": [10.355690521000042, 52.04976701800007]}}, {"type": "Feature", "properties": {"NUTS_ID": "DE92", "LEVL_CODE": 2, "CNTR_CODE": "DE", "NAME_LATN": "Hannover", "NUTS_NAME": "Hannover", "MOUNT_TYPE": 0, "URBN_TYPE": 0, "COAST_TYPE": 0}, "geometry": {"type": "Point", "coordinates": [9.369100280000055, 52.39626214200007]}}, {"type": "Feature", "properties": {"NUTS_ID": "DE93", "LEVL_CODE": 2, "CNTR_CODE": "DE", "NAME_LATN": "Lüneburg", "NUTS_NAME": "Lüneburg", "MOUNT_TYPE": 0, "URBN_TYPE": 0, "COAST_TYPE": 0}, "geometry": {"type": "Point", "coordinates": [10.041557500000067, 52.99518015800004]}}, {"type": "Feature", "properties": {"NUTS_ID": "DE94", "LEVL_CODE": 2, "CNTR_CODE": "DE", "NAME_LATN": "Weser-Ems", "NUTS_NAME": "Weser-Ems", "MOUNT_TYPE": 0, "URBN_TYPE": 0, "COAST_TYPE": 0}, "geometry": {"type": "Point", "coordinates": [7.784940904000052, 52.911801626000056]}}, {"type": "Feature", "properties": {"NUTS_ID": "DEA1", "LEVL_CODE": 2, "CNTR_CODE": "DE", "NAME_LATN": "Düsseldorf", "NUTS_NAME": "Düsseldorf", "MOUNT_TYPE": 0, "URBN_TYPE": 0, "COAST_TYPE": 0}, "geometry": {"type": "Point", "coordinates": [6.598849318000021, 51.43260976900007]}}, {"type": "Feature", "properties": {"NUTS_ID": "DEA2", "LEVL_CODE": 2, "CNTR_CODE": "DE", "NAME_LATN": "Köln", "NUTS_NAME": "Köln", "MOUNT_TYPE": 0, "URBN_TYPE": 0, "COAST_TYPE": 0}, "geometry": {"type": "Point", "coordinates": [6.808698236000055, 50.82833403200004]}}, {"type": "Feature", "properties": {"NUTS_ID": "DEA3", "LEVL_CODE": 2, "CNTR_CODE": "DE", "NAME_LATN": "Münster", "NUTS_NAME": "Münster", "MOUNT_TYPE": 0, "URBN_TYPE": 0, "COAST_TYPE": 0}, "geometry": {"type": "Point", "coordinates": [7.402166653000052, 51.94581070700008]}}, {"type": "Feature", "properties": {"NUTS_ID": "DEA4", "LEVL_CODE": 2, "CNTR_CODE": "DE", "NAME_LATN": "Detmold", "NUTS_NAME": "Detmold", "MOUNT_TYPE": 0, "URBN_TYPE": 0, "COAST_TYPE": 0}, "geometry": {"type": "Point", "coordinates": [8.780893199000047, 51.93623067900006]}}, {"type": "Feature", "properties": {"NUTS_ID": "DEA5", "LEVL_CODE": 2, "CNTR_CODE": "DE", "NAME_LATN": "Arnsberg", "NUTS_NAME": "Arnsberg", "MOUNT_TYPE": 0, "URBN_TYPE": 0, "COAST_TYPE": 0}, "geometry": {"type": "Point", "coordinates": [7.992823069000053, 51.311947356000076]}}, {"type": "Feature", "properties": {"NUTS_ID": "DEB1", "LEVL_CODE": 2, "CNTR_CODE": "DE", "NAME_LATN": "Koblenz", "NUTS_NAME": "Koblenz", "MOUNT_TYPE": 0, "URBN_TYPE": 0, "COAST_TYPE": 0}, "geometry": {"type": "Point", "coordinates": [7.512449319000041, 50.25431689800007]}}, {"type": "Feature", "properties": {"NUTS_ID": "DEB2", "LEVL_CODE": 2, "CNTR_CODE": "DE", "NAME_LATN": "Trier", "NUTS_NAME": "Trier", "MOUNT_TYPE": 0, "URBN_TYPE": 0, "COAST_TYPE": 0}, "geometry": {"type": "Point", "coordinates": [6.702976370000044, 49.97616529800007]}}, {"type": "Feature", "properties": {"NUTS_ID": "DEB3", "LEVL_CODE": 2, "CNTR_CODE": "DE", "NAME_LATN": "Rheinhessen-Pfalz", "NUTS_NAME": "Rheinhessen-Pfalz", "MOUNT_TYPE": 0, "URBN_TYPE": 0, "COAST_TYPE": 0}, "geometry": {"type": "Point", "coordinates": [7.94915609100002, 49.45870425500004]}}, {"type": "Feature", "properties": {"NUTS_ID": "DEC0", "LEVL_CODE": 2, "CNTR_CODE": "DE", "NAME_LATN": "Saarland", "NUTS_NAME": "Saarland", "MOUNT_TYPE": 0, "URBN_TYPE": 0, "COAST_TYPE": 0}, "geometry": {"type": "Point", "coordinates": [6.956966371000021, 49.392248349000056]}}, {"type": "Feature", "properties": {"NUTS_ID": "DED2", "LEVL_CODE": 2, "CNTR_CODE": "DE", "NAME_LATN": "Dresden", "NUTS_NAME": "Dresden", "MOUNT_TYPE": 0, "URBN_TYPE": 0, "COAST_TYPE": 0}, "geometry": {"type": "Point", "coordinates": [14.12670521900003, 51.18088050100005]}}, {"type": "Feature", "properties": {"NUTS_ID": "DED4", "LEVL_CODE": 2, "CNTR_CODE": "DE", "NAME_LATN": "Chemnitz", "NUTS_NAME": "Chemnitz", "MOUNT_TYPE": 0, "URBN_TYPE": 0, "COAST_TYPE": 0}, "geometry": {"type": "Point", "coordinates": [12.814261589000068, 50.73231998000006]}}, {"type": "Feature", "properties": {"NUTS_ID": "DED5", "LEVL_CODE": 2, "CNTR_CODE": "DE", "NAME_LATN": "Leipzig", "NUTS_NAME": "Leipzig", "MOUNT_TYPE": 0, "URBN_TYPE": 0, "COAST_TYPE": 0}, "geometry": {"type": "Point", "coordinates": [12.670440246000055, 51.35827555100008]}}, {"type": "Feature", "properties": {"NUTS_ID": "DEE0", "LEVL_CODE": 2, "CNTR_CODE": "DE", "NAME_LATN": "Sachsen-Anhalt", "NUTS_NAME": "Sachsen-Anhalt", "MOUNT_TYPE": 0, "URBN_TYPE": 0, "COAST_TYPE": 0}, "geometry": {"type": "Point", "coordinates": [11.699571281000033, 52.01098705900006]}}, {"type": "Feature", "properties": {"NUTS_ID": "NO0B", "LEVL_CODE": 2, "CNTR_CODE": "NO", "NAME_LATN": "Jan Mayen and Svalbard", "NUTS_NAME": "Jan Mayen and Svalbard", "MOUNT_TYPE": null, "URBN_TYPE": 0, "COAST_TYPE": 0}, "geometry": {"type": "Point", "coordinates": [17.88899054600006, 78.58082756000005]}}, {"type": "Feature", "properties": {"NUTS_ID": "HR02", "LEVL_CODE": 2, "CNTR_CODE": "HR", "NAME_LATN": "Panonska Hrvatska", "NUTS_NAME": "Panonska Hrvatska", "MOUNT_TYPE": 0, "URBN_TYPE": 0, "COAST_TYPE": 0}, "geometry": {"type": "Point", "coordinates": [17.125127140000075, 45.52349666600003]}}, {"type": "Feature", "properties": {"NUTS_ID": "HR06", "LEVL_CODE": 2, "CNTR_CODE": "HR", "NAME_LATN": "Sjeverna Hrvatska", "NUTS_NAME": "Sjeverna Hrvatska", "MOUNT_TYPE": 0, "URBN_TYPE": 0, "COAST_TYPE": 0}, "geometry": {"type": "Point", "coordinates": [16.37345540900003, 46.14466983300008]}}, {"type": "Feature", "properties": {"NUTS_ID": "NO06", "LEVL_CODE": 2, "CNTR_CODE": "NO", "NAME_LATN": "Trøndelag", "NUTS_NAME": "Trøndelag", "MOUNT_TYPE": 0, "URBN_TYPE": 0, "COAST_TYPE": 0}, "geometry": {"type": "Point", "coordinates": [11.241192750000039, 63.14951922400007]}}, {"type": "Feature", "properties": {"NUTS_ID": "NO07", "LEVL_CODE": 2, "CNTR_CODE": "NO", "NAME_LATN": "Nord-Norge", "NUTS_NAME": "Nord-Norge", "MOUNT_TYPE": 0, "URBN_TYPE": 0, "COAST_TYPE": 0}, "geometry": {"type": "Point", "coordinates": [21.551566250000064, 69.61886285600008]}}, {"type": "Feature", "properties": {"NUTS_ID": "NO08", "LEVL_CODE": 2, "CNTR_CODE": "NO", "NAME_LATN": "Oslo og Viken", "NUTS_NAME": "Oslo og Viken", "MOUNT_TYPE": 0, "URBN_TYPE": 0, "COAST_TYPE": 0}, "geometry": {"type": "Point", "coordinates": [9.920214482000063, 60.08558892600007]}}, {"type": "Feature", "properties": {"NUTS_ID": "NO09", "LEVL_CODE": 2, "CNTR_CODE": "NO", "NAME_LATN": "Agder og Sør-Østlandet", "NUTS_NAME": "Agder og Sør-Østlandet", "MOUNT_TYPE": 0, "URBN_TYPE": 0, "COAST_TYPE": 0}, "geometry": {"type": "Point", "coordinates": [8.185346245000062, 59.11671914300007]}}, {"type": "Feature", "properties": {"NUTS_ID": "NO0A", "LEVL_CODE": 2, "CNTR_CODE": "NO", "NAME_LATN": "Vestlandet", "NUTS_NAME": "Vestlandet", "MOUNT_TYPE": 0, "URBN_TYPE": 0, "COAST_TYPE": 0}, "geometry": {"type": "Point", "coordinates": [7.26493750000003, 60.56334775700003]}}, {"type": "Feature", "properties": {"NUTS_ID": "NO02", "LEVL_CODE": 2, "CNTR_CODE": "NO", "NAME_LATN": "Innlandet", "NUTS_NAME": "Innlandet", "MOUNT_TYPE": 0, "URBN_TYPE": 0, "COAST_TYPE": 0}, "geometry": {"type": "Point", "coordinates": [10.426027999000041, 61.44503217300007]}}]}